"id","geom","location id","address","city","county","state","zip","coverage a","coverage b","coverage c","tiv","latitude","longitude","geom_5070","hits","hits_c"
2468,"0101000020E6100000FCA5457D92D15DC0AD84EE9238BF4140",2468,"273 LORI LN","SHAFTER","Kern","CA",93263,595000,37616,17453,650069,35.493914,-119.274566,"0101000020CE1300007073ADAF1B9F3FC1C076C70401FB3841",0,0
82,"0101000020E6100000D0B359F5B92A5DC0D68BA19C68C74040",82,"56715 Cain Rd","Anza","Riverside","CA",92539,3923788,44475,87566,4055829,33.55788,-116.6676,"0101000020CE130000706C00C51EDA3CC105AC69F062EF3441",1698,1566
1580,"0101000020E6100000D40E7F4DD63E5EC0622D3E05C0E04140",1580,"8051 Ready Rd","Bradley","Monterey","CA",93426,1493139,9980,40249,1543368,35.75586,-120.98183,"0101000020CE130000C4BC7568F1E240C121860D0344003A41",198,198
1797,"0101000020E6100000B35E0CE544695DC0F2CD3637A6BB4040",1797,"93 Marbella","San Clemente","Orange","CA",92673,486433,0,76769,563202,33.46601,-117.64483,"0101000020CE1300000FF320537D3A3EC1D6B0EA150F163541",156,153
3265,"0101000020E61000007C2B1213D4595EC0E1B4E0455F3F4340",3265,"7215 KARA DR","SACRAMENTO","Sacramento","CA",95828,674000,28470,85962,788432,38.495095,-121.403569,"0101000020CE130000A857492DDA8B40C14875C01844AB3E41",0,0
3783,"0101000020E610000010AFEB17EC515DC0124DA088456A4040",3783,"230 BONAIR ST","La Jolla","San Diego","CA",92037,447113,10514,88323,545950,32.830247,-117.280035,"0101000020CE13000060717BF3D4F73DC1E1A081604DEA3341",0,0
5312,"0101000020E610000005C078060D915EC068AED3484B254340",5312,"1119 Wyatt Ave","Napa","Napa","CA",94559,291677,5459,28542,325678,38.29136,-122.26642,"0101000020CE130000A38BAF03472441C181B96024A4A33E41",0,0
3870,"0101000020E6100000F4C308E1D14C5DC0F2CEA10C55974040",3870,"1565 LONE OAK RD","Vista","San Diego","CA",92084,778000,28093,91087,897180,33.182283,-117.20031,"0101000020CE130000DDD988979DB93DC151793F7E8B793441",0,0
1568,"0101000020E6100000D7868A71FE785DC09947FE60E0CD4040",1568,"348 Onyx","Newport Beach","Orange","CA",92662,1335181,36918,21231,1393330,33.60841,-117.89053,"0101000020CE1300002377230A99823EC16C49EAFAA9663541",0,0
2768,"0101000020E61000008065A54929D45DC01F9DBAF2598A4240",2768,"41242 Windwood Ln","Shaver Lake","Fresno","CA",93664,543000,0,53391,596391,37.08087,-119.31502,"0101000020CE13000018B3F5E242043FC1810FB496F79F3B41",174,174
2862,"0101000020E61000007B698A00A7A35EC003232F6B62FD4240",2862,"10 KNOLL RD","SAN ANSELMO","Marin","CA",94960,700000,8551,46036,754587,37.979566,-122.557068,"0101000020CE1300009FD5B11F666641C17BE9F12F693B3E41",0,0
3366,"0101000020E6100000EC32FCA71B4F5EC029CC7B9C69664340",3366,"4237 ANTELOPE CT","ROCKLIN","Placer","CA",95677,415000,0,24330,439330,38.800098,-121.236063,"0101000020CE130000BDEF9E7A0F5F40C1FDCC94143E1D3F41",0,0
5020,"0101000020E6100000BBD573D2FB905EC0E0A128D0272A4340",5020,"1030 Ross Cir","Napa","Napa","CA",94558,3123443,12260,42530,3178233,38.32934,-122.26537,"0101000020CE1300004D895E6FD62141C1A419A0CB8AB33E41",0,0
5216,"0101000020E6100000A3E9EC64706A5EC0E50AEF7211574240",5216,"238 W Market St","Salinas","Monterey","CA",93901,1571317,43894,89444,1704655,36.68022,-121.66311,"0101000020CE13000003063F420D2041C1FD6DD7CBD1C43B41",0,0
7039,"0101000020E610000018EC866D8B2A5DC04FE960FD9FBF4040",7039,"57220 Bailey Rd","Anza","Riverside","CA",92539,913465,24341,0,937806,33.49707,-116.66476,"0101000020CE1300000144204AD8DE3CC141B82BA142D53441",3621,3243
469,"0101000020E610000006F52D73BAA65CC05ED72FD80D6B4140",469,"405 D St","Needles","San Bernardino","CA",92363,1302687,29745,93033,1425465,34.83636,-114.60513,"0101000020CE130000D11CAAAE6B9639C1DAE63A07907A3641",0,0
1410,"0101000020E6100000AB2688BA0F545EC07D96E7C1DD354240",1410,"1870 Palm Ave","Soledad","Monterey","CA",93960,1037627,0,78789,1116416,36.42083,-121.31346,"0101000020CE1300001A778E6FB0F440C1F28E9B3445373B41",0,0
3117,"0101000020E6100000BC9179E40F805DC046B1DCD26AD44040",3117,"305 5th","Huntington Beach","Orange","CA",92648,298000,0,86485,384485,33.65951,-118.00097,"0101000020CE130000AB90A2B02EA43EC1FFC92C3877853541",0,0
4390,"0101000020E61000002FA3586E69CF5DC099F04BFDBC394140",4390,"525 E Oak St","Ojai","Ventura","CA",93023,569325,33914,24879,628118,34.45108,-119.24081,"0101000020CE13000016D5ACDEF90040C1B2F29DA3EF3D3741",162,156
4611,"0101000020E6100000982F2FC03EAA5EC0AA0EB9196E3C4340",4611,"409 Korbel Pl","Santa Rosa","Sonoma","CA",95409,3790606,4434,40764,3835804,38.47211,-122.66008,"0101000020CE130000A886BA5D5E5941C12F5416B94E143F41",0,0
6577,"0101000020E6100000111E6D1CB1CA5EC0C6504EB4AB944340",6577,"2290 Appolinaris Dr","Ukiah","Mendocino","CA",95482,645474,0,57940,703414,39.16149,-123.16706,"0101000020CE1300000919F5DAFA8041C1E4C1B07DDB324041",177,174
6833,"0101000020E6100000FA7E6ABC746B5DC0C6DCB5847C104140",6833,"1509 18th","Upland","San Bernardino","CA",91784,534145,26852,82362,643359,34.1288,-117.679,"0101000020CE1300000A52FEA013053EC10E74D5E89D323641",0,0
7654,"0101000020E610000099620E828ECD5DC059164CFC51184140",7654,"3131 NET CT","Oxnard","Ventura","CA",93035,455000,0,24638,479638,34.190002,-119.211823,"0101000020CE1300005B01A33BC10940C1FFBDD27CCDCC3641",0,0
413,"0101000020E610000051BD35B055B85DC08D45D3D9C9244140",413,"172 Everett St","Moorpark","Ventura","CA",93021,3509542,46885,43094,3599521,34.28741,-118.88023,"0101000020CE130000A24A40915A963FC1DA12813FA9D93641",36,33
2360,"0101000020E6100000FB58C16F43D65DC0698A00A777CB4140",2360,"1102 CYPRESS AV","WASCO","Kern","CA",93280,664000,0,64251,728251,35.589589,-119.347866,"0101000020CE130000832587C1E9AD3FC197093E5CD6293941",0,0
3759,"0101000020E6100000D6FCF84B8B4F5DC02C82FFAD648B4040",3759,"3016 PUEBLO ST","Carlsbad","San Diego","CA",92009,536000,0,29957,565957,33.08901,-117.242877,"0101000020CE1300006062FDAFA7D13DC17AF3775E4C553441",0,0
4313,"0101000020E61000000B98C0ADBB7B5EC08B321B6492454240",4313,"26208 Scenic Rd","Carmel","Monterey","CA",93923,1717816,48489,17756,1784061,36.54353,-121.93333,"0101000020CE130000C7119104215541C19D02A3AA46A43B41",0,0
4606,"0101000020E6100000C1C58A1A4CB35EC0B24B546F0D384340",4606,"5214 Hall Rd","Santa Rosa","Sonoma","CA",95401,1871914,40031,43795,1955740,38.43791,-122.80152,"0101000020CE130000984C8086637241C199F221F32D133F41",33,33
6618,"0101000020E6100000EE5F5969527A5DC0B329577897EB4040",6618,"422 N Olive St","Anaheim","Orange","CA",92805,700641,43367,26895,770903,33.84056,-117.91128,"0101000020CE1300003C9329C3B7723EC18908E6C6FFCA3541",0,0
6455,"0101000020E6100000392861A6ED715EC072DC291DAC774240",6455,"145 Roache Rd","Freedom","Santa Cruz","CA",95019,882197,0,5066,887263,36.93494,-121.78013,"0101000020CE1300002D64C0699D2441C155A845BD0A3B3C41",0,0
51,"0101000020E6100000FE0E45813EA75EC01B2FDD2406FD4240",51,"189 Canyon Road","Fairfax","Marin","CA",94930,2657529,31042,95332,2783903,37.97675,-122.61319,"0101000020CE130000AF207B4ABC6F41C1012766167E3F3E41",45,45
1116,"0101000020E6100000DBC4C9FD0EDD5DC0C30DF8FC30924140",1116,"211 Lucard St","Taft","Kern","CA",93268,229350,6209,68182,303741,35.14212,-119.45404,"0101000020CE13000043871316EB0040C1A72407DD35753841",3,3
1182,"0101000020E6100000AA436E861B7C5DC015527E52EDF74040",1182,"634 Maple St","La Habra","Orange","CA",90631,256633,29590,86261,372484,33.93693,-117.93918,"0101000020CE130000F710CB55D7723EC1C3BBD6E13CF63541",0,0
1878,"0101000020E610000051F701486D345EC04D2D5BEB8B884240",1878,"2259 Savona St","Los Banos","Merced","CA",93635,931473,0,7693,939166,37.06677,-120.81917,"0101000020CE1300000B7ED6D4637D40C1EE54BBAEA51B3C41",0,0
2175,"0101000020E61000003A1E335019DD5DC034F44F70B1924140",2175,"328 Warren St","Taft","Kern","CA",93268,559000,37229,95303,691532,35.14604,-119.45467,"0101000020CE1300003300D919D10040C1D0747B21ED763841",3,3
3129,"0101000020E61000007C65DEAAEB5A5EC057CD7344BE354340",3129,"7107 SEASONS DR","ELK GROVE","Sacramento","CA",95758,307000,0,56311,363311,38.419869,-121.420634,"0101000020CE1300003137FB7CFB9240C13F407FB0058D3E41",0,0
3757,"0101000020E6100000B08F4E5DF97C5DC05B99F04BFDE04040",3757,"10158 15th","Garden Grove","Orange","CA",92843,727000,0,0,727000,33.75773,-117.95272,"0101000020CE130000891F223779893EC1DC45A70336AB3541",0,0
4389,"0101000020E6100000A089B0E1E9CD5DC0878A71FE26184140",4389,"1244 Deckside Dr","Oxnard","Ventura","CA",93035,738016,0,83766,821782,34.18869,-119.2174,"0101000020CE130000E5839E76CA0A40C1FA13528FBACC3641",0,0
4811,"0101000020E6100000F9DA334B027A5EC0CD0182397A484240",4811,"24533 Outlook Dr","Carmel","Monterey","CA",93923,3654619,22727,22247,3699593,36.56623,-121.90639,"0101000020CE13000058CFDB144C4F41C198CE020354AB3B41",15,15
5156,"0101000020E6100000B8921D1B81705DC0CBA145B6F3C14040",5156,"51 Shreve Dr","Laguna Beach","Orange","CA",92651,1136839,7701,85698,1230238,33.51525,-117.75788,"0101000020CE13000015AAFA41535D3EC1D823127E35343541",0,0
6269,"0101000020E6100000A530EF71A6795DC078D503E6210F4140",6269,"241 MURRAY AVENUE","AZUSA","Los Angeles","CA",91702,522452,0,27235,549687,34.118222,-117.900784,"0101000020CE1300000E9C69FC5C533EC14B1EC84125403641",0,0
6768,"0101000020E610000016A4198BA67F5EC002BC0512147B4240",6768,"164 13th","Santa Cruz","Santa Cruz","CA",95062,478875,0,54059,532934,36.96155,-121.99454,"0101000020CE1300002A7CD861A14641C13EA16D87235A3C41",0,0
6871,"0101000020E610000022E010AAD4445DC002D4D4B2B58E4040",6871,"147 9th","Escondido","San Diego","CA",92025,879798,27949,0,907747,33.11492,-117.07548,"0101000020CE1300004A79A05F02943DC1770E84AAEC523441",0,0
8010,"0101000020E6100000FCC6D79E59905EC0392861A6ED234340",8010,"2175 Penny Ln","Napa","Napa","CA",94559,300000,30000,150000,500000,38.28069,-122.25547,"0101000020CE130000449065C8212341C180E613B5229E3E41",0,0
135,"0101000020E61000005C035B2558725DC09947FE60E0D14040",135,"55 Canyon Crk","Irvine","Orange","CA",92603,538831,0,89706,628537,33.63966,-117.78663,"0101000020CE130000A2AFDBA6145B3EC1B1C869636C6B3541",45,45
587,"0101000020E6100000931804560E775DC09AB67F65A50D4140",587,"20166 E Arrow Hwy","Covina","Los Angeles","CA",91724,1932924,35540,0,1968464,34.10661,-117.86025,"0101000020CE130000E65FA7C367463EC1C2EF709CE6373641",0,0
762,"0101000020E6100000473D44A33B745DC0F0F96184F0E84040",762,"9815 Haninger Way","Villa Park","Orange","CA",92861,278408,0,33503,311911,33.81984,-117.81614,"0101000020CE1300003B4C0F4F87533EC186BFC5F567BA3541",0,0
1668,"0101000020E6100000D4484BE5ED725DC027C286A757C64040",1668,"382 Pinecrest Dr","Laguna Beach","Orange","CA",92651,1434109,0,93915,1528024,33.54955,-117.79577,"0101000020CE1300007CA1F4CF38673EC117F4D22FE2453541",0,0
4179,"0101000020E61000003A58FFE730A15EC0977329AE2AFB4240",4179,"19 Bret Ave","San Rafael","Marin","CA",94901,754208,0,96585,850793,37.96224,-122.51861,"0101000020CE1300001262BD58296141C1144E171684303E41",0,0
4655,"0101000020E6100000DEB06D5166815EC03D49BA66F2ED4240",4655,"919 Ina Dr","Alamo","Contra Costa","CA",94507,3748011,8597,95605,3852213,37.85896,-122.02187,"0101000020CE1300001485CD720C1641C1E553344AE5D63D41",0,0
5451,"0101000020E610000096218E7571755DC0B6679604A8C94040",5451,"55 Timor Sea","Newport Coast","Orange","CA",92657,97040,0,14420,111460,33.57544,-117.83505,"0101000020CE130000FFB2DBBC6D723EC17D4671391A543541",0,0
347,"0101000020E6100000EDD808C4EB1A5DC0514EB4AB90E24040",347,"9 Clemson St","Rancho Mirage","Riverside","CA",92270,3503755,0,20033,3523788,33.77004,-116.42064,"0101000020CE130000DA28FF307E6F3CC11CF1FD3EC1363541",0,0
550,"0101000020E610000024B4E55C8A795DC04243FF04170F4140",550,"18027 E Fondale St","Azusa","Los Angeles","CA",91702,2396807,0,77605,2474412,34.11789,-117.89907,"0101000020CE130000DF5968AFCC523EC159330949DD3F3641",0,0
674,"0101000020E61000003E7958A835955EC0641EF98381C74240",674,"355 Franklin St","San Mateo","San Mateo","CA",94402,3781435,0,32590,3814025,37.55864,-122.3314,"0101000020CE130000A5E3A2FEBA5A41C1D0CC68E016753D41",0,0
1324,"0101000020E6100000DE8E705AF0DC5DC0381092054C944140",1324,"512 Monroe St","Taft","Kern","CA",93268,673477,0,43966,717443,35.15857,-119.45217,"0101000020CE130000D57D93AA70FF3FC109DE7D9C057C3841",3,3
2178,"0101000020E61000004833164D67D35DC0095053CBD6324140",2178,"358 W Oak View Ave","Oak View","Ventura","CA",93022,448000,0,31528,479528,34.39718,-119.30318,"0101000020CE13000098B1FF859B0E40C117612C8C7B2C3741",105,102
2628,"0101000020E6100000438EAD6708845EC06AD95A5F24DA4240",2628,"4674 HEYER AV","CASTRO VALLEY","Alameda","CA",94546,877000,0,5815,882815,37.704235,-122.063013,"0101000020CE130000D6E9B58DF62541C1EC0F4F637A993D41",0,0
3481,"0101000020E6100000E544BB0A29955DC0A67EDE54A4F64040",3481,"3345 118th","Inglewood","Los Angeles","CA",90303,75000,0,23886,98886,33.92689,-118.33063,"0101000020CE1300008728651A65FC3EC1F6A94D4F5D123641",0,0
3862,"0101000020E610000005E10A28D44F5DC06DE179A9D89C4040",3862,"208 CANDICE PL","Vista","San Diego","CA",92083,363000,34619,90510,488129,33.225362,-117.247324,"0101000020CE130000AF9634330BC63DC1EB7C92BFA18F3441",0,0
4650,"0101000020E61000000C1F1153229D5EC0C5AC174339294340",4650,"17528 High Rd","Sonoma","Sonoma","CA",95476,1712644,43371,0,1756015,38.32206,-122.45522,"0101000020CE1300009641762F284141C145E5FAFF0FC23E41",180,180
5322,"0101000020E6100000E65C8AABCA885EC01F680586ACF24240",5322,"1081 Via Alta","Lafayette","Contra Costa","CA",94549,159942,0,7060,167002,37.89589,-122.13737,"0101000020CE1300003197E6D9C62641C1155E38901CF13D41",0,0
7842,"0101000020E6100000D1CB28965BA25EC0F71E2E39EEFC4240",7842,"321 G St","San Rafael","Marin","CA",94901,445022,0,35964,480986,37.97602,-122.53684,"0101000020CE1300000720BF084F6341C1496E89E005383E41",0,0
758,"0101000020E6100000C49448A297795DC00A9DD7D825CE4040",758,"8 Harbor Island","Newport Beach","Orange","CA",92660,259635,0,10187,269822,33.61053,-117.89988,"0101000020CE130000EC8F3DD3A9853EC1B8ABC94A55683541",0,0
1421,"0101000020E610000014E8137992A25EC0FB743C66A0FA4240",1421,"310 Palm Ave","Kentfield","Marin","CA",94904,930365,0,37587,967952,37.95802,-122.54019,"0101000020CE130000612AE531F16441C16B7EB9E8C2303E41",0,0
1724,"0101000020E6100000855FEAE74D715EC01F11532289D64240",1724,"684 S M St","Livermore","Alameda","CA",94550,674983,25680,84131,784794,37.67606,-121.77038,"0101000020CE130000519AF4DA8BF740C1F2FBEBC5B4723D41",0,0
1686,"0101000020E61000003F3A75E5B3EB5DC0691A14CD03604240",1686,"484 N SHIRLEY AVE","FRESNO","Fresno","CA",93727,326000,0,26246,352246,36.750116,-119.682855,"0101000020CE130000140B6722A7A23FC1A7F3F7CDA5323B41",0,0
3007,"0101000020E61000000398327040CA5DC0740B5D89406D4140",3007,"2617 WOODLAND DR","PINE MTN CLUB","Kern","CA",93225,887000,0,54015,941015,34.853532,-119.160183,"0101000020CE130000AEFB9707AABB3FC1F23D93E9A0E13741",723,699
3492,"0101000020E610000021CEC3094C575DC0FDA4DAA7E30D4140",3492,"451 N SAGE AVE","RIALTO","San Bernardino","CA",92376,680000,0,85086,765086,34.10851,-117.364016,"0101000020CE130000A0DC7F0D4B993DC11DA832D1B0103641",0,0
5294,"0101000020E61000002DEC6987BF945EC0E7525C55F6254340",5294,"1212 Thompson Ave","Napa","Napa","CA",94558,139472,0,15197,154669,38.29658,-122.32419,"0101000020CE13000078255B5A5E2D41C1CA7637342EAB3E41",135,135
6668,"0101000020E6100000A167B3EA73775DC0CD920035B5E44040",6668,"167 S Main St","Orange","Orange","CA",92868,444893,0,93501,538394,33.78678,-117.86645,"0101000020CE130000C1B43EF067683EC19633D7DD78B03541",0,0
6818,"0101000020E610000076A6D0798D995DC0CC9717601FF14040",6818,"932 8th","Manhattan Beach","Los Angeles","CA",90266,835746,0,66115,901861,33.88377,-118.39926,"0101000020CE130000C77DCE8AB7183FC10A3DADD1CC053641",0,0
7125,"0101000020E6100000BB61DBA2CC605DC0EAE74D452AF04040",7125,"3476 Briarvale St","Corona","Riverside","CA",92879,925334,0,33733,959067,33.87629,-117.51249,"0101000020CE130000B5BC0F82CEE33DC1C55B3EA4C7B93541",0,0
336,"0101000020E61000007FBC57AD4C345DC02766BD18CA6D4040",336,"9553 Chocolate Dr","El Cajon","San Diego","CA",92021,501722,0,73046,574768,32.85773,-116.81718,"0101000020CE1300008EDC65C711513DC1533C875207D13341",642,618
1383,"0101000020E610000075E5B33C0F385DC0833463D1745A4040",1383,"13871 Melody Rd","Jamul","San Diego","CA",91935,542816,0,19101,561917,32.70669,-116.87593,"0101000020CE1300000133B68E40743DC162D099FB6E953341",411,390
1774,"0101000020E6100000F6EE8FF7AACB5DC02098A3C7EF194140",1774,"127 S D St","Oxnard","Ventura","CA",93030,1384736,0,72805,1457541,34.20263,-119.18231,"0101000020CE1300004AD842FDF80340C1A140E3E59ACF3641",0,0
2469,"0101000020E6100000307F85CC95D15DC0AD84EE9238BF4140",2469,"265 LORI LN","SHAFTER","Kern","CA",93263,94000,18156,7407,119563,35.493914,-119.274768,"0101000020CE130000D0F4A34F2D9F3FC140EF716C05FB3841",0,0
3723,"0101000020E61000007A17EFC7ED575DC004ADC090D51B4140",3723,"1950 MEYERS RD","DEVORE","San Bernardino","CA",92407,812000,0,94872,906872,34.217455,-117.373888,"0101000020CE130000A0BCBC5320923DC146DA52A1D93F3641",1236,1185
4388,"0101000020E6100000A9F6E978CCCA5DC0DCF4673F52144140",4388,"4568 Frost Dr","Oxnard","Ventura","CA",93033,462126,10383,22985,495494,34.15876,-119.16873,"0101000020CE130000F1D4B441EE0340C17B965F18D8BB3641",0,0
4685,"0101000020E61000004512BD8C626D5DC0E2016553AEBC4040",4685,"33693 Halyard Dr","Dana Point","Orange","CA",92629,565790,0,32387,598177,33.47407,-117.70914,"0101000020CE130000358AB6E648503EC1D9712864BA1E3541",0,0
5168,"0101000020E61000003CDA38622DA45EC08E06F016480C4340",5168,"23 Hill Rd","Novato","Marin","CA",94945,570167,6905,8511,585583,38.09595,-122.56527,"0101000020CE130000FCEEFC80B56041C166BB1365286D3E41",0,0
7057,"0101000020E610000015E3FC4D28685EC06DCA15DEE54A4240",7057,"23538 Belmont Cir","Salinas","Monterey","CA",93908,301565,0,43268,344833,36.58514,-121.62746,"0101000020CE13000020E09B0EA71F41C13CECE6A06D993B41",126,126
8022,"0101000020E610000057EC2FBB27995EC07B6649809A4A4440",8022,"1556 Bromm Dr","Shasta","Redding","CA",96001,300000,30000,150000,500000,40.58284,-122.39305,"0101000020CE130000FD7C946261AF40C1611AABF2013A4141",0,0
354,"0101000020E610000026361FD7868C5EC09AEB34D252E54240",354,"3754 38th","Oakland","Alameda","CA",94619,309502,37865,90612,437979,37.79159,-122.19573,"0101000020CE1300002DA51FA28B3641C1E145200592CA3D41",0,0
810,"0101000020E61000007901F6D1A97F5EC0E08442041C964240",810,"20425 Kent Way","Los Gatos","Santa Cruz","CA",95033,78839,0,25035,103874,37.17273,-121.99474,"0101000020CE130000BF3C09BF2D3A41C13D10EDBF27B33C41",750,735
920,"0101000020E6100000A8C64B37894B5DC09F76F86BB26A4040",920,"5151 Kesling St","San Diego","San Diego","CA",92117,84068,0,13051,97119,32.83357,-117.18025,"0101000020CE130000C281B8F222D43DC10791F586ADE33341",0,0
3732,"0101000020E6100000239EEC6646545DC0CA198A3BDE924040",3732,"4805 NEBLINA DR","Carlsbad","San Diego","CA",92008,462000,0,9600,471600,33.147407,-117.316797,"0101000020CE1300000B6CC0BE1BE63DC1A4FB4B1D12743441",0,0
4372,"0101000020E61000000708E6E8F1715EC05587DC0C37FC4240",4372,"4369 Elk Dr","Antioch","Contra Costa","CA",94509,713268,0,88688,801956,37.97043,-121.78039,"0101000020CE1300009FAA3AB8ECE740C1E0F0FE30C9EF3D41",0,0
4695,"0101000020E61000000EBE30992AB25DC023BE13B35E184140",4695,"4912 Kilburn Ct","Oak Park","Ventura","CA",91377,896922,0,43738,940660,34.19039,-118.78385,"0101000020CE13000075ADAC09027F3FC1EEFA705D52A83641",57,54
6571,"0101000020E6100000A5DAA7E331095EC07311DF89594B4140",6571,"160 1st","Solvang","Santa Barbara","CA",93463,494253,0,32080,526333,34.58867,-120.14367,"0101000020CE1300000CEF0AB2359540C12AF11EE56FC73741",42,42
7758,"0101000020E6100000E960FD9FC3A45EC059A31EA2D10D4340",7758,"978 4th","Novato","Marin","CA",94945,744000,0,44749,788749,38.10796,-122.57444,"0101000020CE1300008D197F8F7A6141C1B0D93A0F12733E41",0,0
8009,"0101000020E6100000A5315A4755915EC0791EDC9DB5274340",8009,"1700 King Ave","Napa","Napa","CA",94559,300000,30000,150000,500000,38.31023,-122.27083,"0101000020CE1300002DF9462ADE2341C16ABC672DFFAB3E41",0,0
355,"0101000020E61000005EBA490C029D5EC0CA6C904946264340",355,"61 2nd","Sonoma","Sonoma","CA",95476,477666,29436,73526,580628,38.29902,-122.45325,"0101000020CE130000AAD6D8F7384241C1A8E1C90E2EB83E41",0,0
2467,"0101000020E6100000A27DACE0B7DD5DC06C43C5387FB34140",2467,"317 SUDAN AV","BUTTONWILLOW","Kern","CA",93206,588000,0,62254,650254,35.40232,-119.464348,"0101000020CE13000029EF471A90E93FC1028A169566E43841",0,0
6300,"0101000020E610000019E76F4221945EC02D431CEBE2C64240",6300,"29 16th","San Mateo","San Mateo","CA",94402,930345,16881,14243,961469,37.5538,-122.31453,"0101000020CE1300008E7631313F5841C18583817179713D41",0,0
6375,"0101000020E610000097E2AAB2EF785EC042B28009DCAA4240",6375,"92 7th","San Jose","Santa Clara","CA",95113,422565,14522,17078,454165,37.33484,-121.88963,"0101000020CE1300003DCEE05A3E1F41C13D1D1C6EC3ED3C41",0,0
7004,"0101000020E6100000E97DE36BCF505DC059DDEA39E9994040",7004,"755 Anns Way","Vista","San Diego","CA",92083,540885,48499,64208,653592,33.20243,-117.26266,"0101000020CE1300003704CB07ACCD3DC184707A791C873441",0,0
1900,"0101000020E61000007632384A5E915EC011C7BAB88DF24240",1900,"817 San Luis Rd","Berkeley","Alameda","CA",94707,417025,0,19774,436799,37.89495,-122.27138,"0101000020CE13000021DDDA29C53C41C13B0A9E3A21FD3D41",0,0
2461,"0101000020E610000007978E39CF715EC0F6B4C35F93D54240",2461,"1169 CANTON AV","LIVERMORE","Alameda","CA",94550,673000,0,17845,690845,37.66856,-121.778273,"0101000020CE1300006D878DA448F940C105395CAD43703D41",0,0
2799,"0101000020E61000006FD921FE61AC5EC0D6C743DFDDF44240",2799,"50 MESA RD","BOLINAS","Marin","CA",94924,889000,11351,93987,994338,37.913021,-122.693481,"0101000020CE130000F0F898D7B68041C1EA185BE63C2C3E41",15,15
3731,"0101000020E610000041F2CEA10C545DC044F8174163924040",3731,"4874 PARK DR","Carlsbad","San Diego","CA",92008,797000,0,46686,843686,33.143654,-117.313271,"0101000020CE130000E72870413AE53DC1C9F6F6F930723441",0,0
3925,"0101000020E6100000605969520A965EC03CA583F57F2E4340",3925,"1226 Darms Ln","Napa","Napa","CA",94558,300175,37580,34979,372734,38.36328,-122.34438,"0101000020CE13000082CFAF83A82C41C110405A7123C93E41",0,0
814,"0101000020E6100000359886E1237A5EC00F289B7285334240",814,"36768 Hwy 1","Carmel","Monterey","CA",93923,130989,0,5325,136314,36.40251,-121.90844,"0101000020CE1300006A5B4AB2485941C17CCDB68F86663B41",135,135
1651,"0101000020E6100000850838842A4D5DC024287E8CB9EB4040",1651,"936 Regency St","Perris","Riverside","CA",92571,866025,0,7357,873382,33.8416,-117.20572,"0101000020CE130000A1DD8756DF7B3DC1BDBC8E9C7C923541",0,0
2398,"0101000020E6100000E5B67D8FFA8E5EC0E2E47E87A2E04240",2398,"1218 POST ST","ALAMEDA","Alameda","CA",94501,330000,0,69003,399003,37.75496,-122.234043,"0101000020CE1300003BD2F7E8023F41C12AC39D43B2BE3D41",0,0
2970,"0101000020E6100000F513CE6E2DBE5DC0499F56D11F884140",2970,"7118 BENJIE WY","BAKERSFIELD","Kern","CA",93313,90000,0,8463,98463,35.063471,-118.971523,"0101000020CE1300006BD4E692D3643FC132161223A62A3841",0,0
1,"0101000020E61000003E5C72DC29B75DC03F1D8F19A8044140",1,"30953 Broad Beach Rd","Malibu","Los Angeles","CA",90265,602386,17035,44893,664314,34.03638,-118.86193,"0101000020CE130000754BA56C20AA3FC1F3493E84A66D3641",0,0
2,"0101000020E6100000A27F828B155F5DC06B65C22FF5EF4040",2,"16182 Blacksage Ct","Riverside","Riverside","CA",92503,362059,43525,57465,463049,33.87467,-117.48569,"0101000020CE130000E060D18198DA3DC15EE5A227EFB63541",0,0
3,"0101000020E6100000170E846401635DC02D431CEBE2EE4040",3,"1171 Birch St","Corona","Riverside","CA",92879,906965,5954,50903,963822,33.8663,-117.54696,"0101000020CE130000DA7ED23FD6F03DC19AE81B004FB83541",0,0
4,"0101000020E610000003B2D7BB3F565DC0FE2B2B4D4A554140",4,"22855 Bryman Rd","Oro Grande","San Bernardino","CA",92368,601850,32229,15886,649965,34.66633,-117.34764,"0101000020CE13000026F1EB5B505D3DC1BF5827E4E5FC3641",51,51
5,"0101000020E6100000FDA4DAA7E3495DC0C47762D68B954040",5,"1569 Berkshire Ct","San Marcos","San Diego","CA",92069,937698,0,17273,954971,33.16833,-117.15452,"0101000020CE1300006B10F8B1CBAA3DC1DAAC93B0F26F3441",0,0
6,"0101000020E61000004182E2C798495DC06C26DF6C73934040",6,"841 Blackberry Ct","San Marcos","San Diego","CA",92069,1562937,43769,59172,1665878,33.15196,-117.14995,"0101000020CE13000071A2C5F8C1AA3DC1B6B8A8E79E683441",0,0
7,"0101000020E6100000C79DD2C1FA475DC06666666666924040",7,"567 Butterwood Ave","San Marcos","San Diego","CA",92069,1753901,42508,9572,1805981,33.14375,-117.12468,"0101000020CE1300007A9B5B6C9FA23DC1B999F44E1C633441",0,0
8,"0101000020E6100000319413ED2A425DC06E8B321B649E4040",8,"13870 Blue Sage Ln","Valley Center","San Diego","CA",92082,1306862,3988,50291,1361141,33.23743,-117.03387,"0101000020CE1300008678A8BE93793DC1681D8320BB833441",849,762
9,"0101000020E6100000876D8B321B385DC011018750A5CE4040",9,"35138 Benton Rd","Hemet","Riverside","CA",92544,1960887,36300,77491,2074678,33.61442,-116.87666,"0101000020CE130000C3310D0D421E3DC11D4759D2CA173541",2208,1965
10,"0101000020E61000001D7233DC80535DC05D33F9669BEB4040",10,"20524 Burns St","Perris","Riverside","CA",92570,1293878,0,55796,1349674,33.84068,-117.30474,"0101000020CE13000040D2DF8B9D9E3DC102F67553FA993541",489,456
11,"0101000020E6100000F59CF4BEF1415DC0FB7953910A4F4040",11,"593 Biernacki Ct","Chula Vista","San Diego","CA",91911,1017543,34692,17691,1069926,32.61751,-117.03038,"0101000020CE13000019A85C3DA8B33DC1C7D1EEBED27B3341",0,0
12,"0101000020E61000002EAD86C43D565DC0A8A9656B7D954040",12,"997 Buena Pl","Carlsbad","San Diego","CA",92008,2775274,9795,91088,2876157,33.16789,-117.34752,"0101000020CE13000050C14CE2F6EE3DC1A1651512417F3441",0,0
13,"0101000020E6100000C02154A9D9515DC09817601F9D8A4040",13,"1382 Bello Mar Dr","Encinitas","San Diego","CA",92024,3507021,0,8398,3515419,33.08292,-117.27891,"0101000020CE1300000A092EE7F9DE3DC1B7FCE32C9B553441",0,0
14,"0101000020E6100000FC523F6F2A505DC098512CB7B4864040",14,"1624 Blossom Field Way","Encinitas","San Diego","CA",92024,2309639,27911,46258,2383808,33.05239,-117.25259,"0101000020CE130000847E75BDA0D83DC1560C879F82463441",0,0
15,"0101000020E61000009609BFD4CF515DC0E605D847A76A4040",15,"429 Belvedere St","La Jolla","San Diego","CA",92037,517483,40417,72107,630007,32.83323,-117.27831,"0101000020CE130000B1574C84EEF63DC16589523E6EEB3341",0,0
16,"0101000020E610000060C8EA56CF4F5DC0295C8FC2F5704040",16,"9665 Black Gold Rd","La Jolla","San Diego","CA",92037,1216391,37078,37150,1290619,32.8825,-117.24703,"0101000020CE130000C809782215E73DC11D9E47F2D8FD3341",0,0
17,"0101000020E6100000789CA223B9445DC030F0DC7BB8844040",17,"17711 Bellechase Cir","San Diego","San Diego","CA",92128,3745867,40164,69157,3855188,33.03688,-117.0738,"0101000020CE13000084F78128E69A3DC1CD668D4299313441",0,0
18,"0101000020E6100000151DC9E53F445DC0C2DD59BBED824040",18,"17114 Bernardo Oaks Dr","San Diego","San Diego","CA",92128,1403655,40875,34015,1478545,33.02288,-117.0664,"0101000020CE130000E7DE0E999F993DC11ADCDDF00D2B3441",0,0
19,"0101000020E610000034D769A4A5425DC04F0647C9AB7F4040",19,"15683 Boulder Ridge Ln","Poway","San Diego","CA",92064,648756,47216,30884,726856,32.99743,-117.04136,"0101000020CE1300006F28FB6533933DC11E26E0203C1E3441",18,18
20,"0101000020E61000003CDA38622D425DC0A5BDC117266B4040",20,"8786 Bushy Hill Dr","Santee","San Diego","CA",92071,2335227,28379,27051,2390657,32.8371,-117.03402,"0101000020CE130000A40D2BF3F19F3DC1DCA1050278D93341",0,0
21,"0101000020E610000022C32ADEC83E5DC0166A4DF38E674040",21,"1034 Blackbird St","El Cajon","San Diego","CA",92020,1258186,38615,33781,1330582,32.80905,-116.98101,"0101000020CE13000091975C32D28F3DC19D1DECC150C93341",0,0
22,"0101000020E6100000B3CD8DE909395DC0CAA65CE15D6A4040",22,"13778 Braeswood Ter","El Cajon","San Diego","CA",92021,2727129,45257,49544,2821930,32.83099,-116.89123,"0101000020CE130000EBACD57DE06D3DC1AC35604C83CB3341",0,0
23,"0101000020E61000001B649291B33C5DC023F8DF4A76684040",23,"1571 Buckeye Dr","El Cajon","San Diego","CA",92021,889279,0,96115,985394,32.81611,-116.94846,"0101000020CE130000337CD53799833DC11F630F51BAC93341",0,0
24,"0101000020E61000002D6002B7EE425DC0D0ED258DD14A4040",24,"4083 Byrd St","San Diego","San Diego","CA",92154,2216471,46161,18695,2281327,32.58452,-117.04582,"0101000020CE13000060A0DA1A4EBC3DC15E50EF87096F3341",0,0
25,"0101000020E61000007138F3AB39165DC0F437A11001DB4040",25,"75560 Beryl Ln","Indian Wells","Riverside","CA",92210,1039851,17483,58988,1116322,33.71097,-116.34727,"0101000020CE130000E1701496375B3CC10360CE67F4173541",0,0
26,"0101000020E610000031D3F6AFAC165DC0774A07EBFFE04040",26,"110 Bouquet Canyon Dr","Palm Desert","Riverside","CA",92211,1703184,0,48997,1752181,33.75781,-116.35429,"0101000020CE1300006574C7A856593CC1BF62A013772C3541",0,0
27,"0101000020E610000033C4B12E6E235DC04C1AA37554ED4040",27,"402 Cabrillo Rd","Palm Springs","Riverside","CA",92262,1766761,13289,29644,1809694,33.85414,-116.5536,"0101000020CE130000591D4D4146963CC1E5DEF38AD2643541",0,0
28,"0101000020E6100000DDEA39E97D035DC063D1747632104140",28,"73332 Boling Dr","Twentynine Palms","San Bernardino","CA",92277,3228372,26024,17567,3271963,34.12654,-116.05456,"0101000020CE130000C911558F5BCE3BC1ACD36A5221B33541",0,0
29,"0101000020E6100000350C1F11539C5EC005DD5ED218BD4240",29,"438 Casa Del Mar Dr","Half Moon Bay","San Mateo","CA",94019,2386224,44026,81243,2511493,37.47732,-122.44257,"0101000020CE13000019D4401BE47141C17D262536465D3D41",0,0
30,"0101000020E610000068D0D03FC18D5EC015E3FC4D28B84240",30,"26 Callado Way","Atherton","San Mateo","CA",94027,2887871,30310,8837,2927018,37.43873,-122.21492,"0101000020CE130000CCCF1777BA4E41C1344F359CB6373D41",0,0
31,"0101000020E61000000A9DD7D825905EC07ADFF8DA33B74240",31,"1607 Canada Lane","Woodside","San Mateo","CA",94062,3023670,9355,8042,3041067,37.43127,-122.25231,"0101000020CE1300002A88E3EE545541C1CDB0C26F0F383D41",0,0
32,"0101000020E61000004DBED9E6C6905EC0C095ECD808B84240",32,"1179 Canada Rd","Woodside","San Mateo","CA",94062,3008964,0,8797,3017761,37.43777,-122.26214,"0101000020CE130000002B4D07905641C1901E5848B73B3D41",3,3
33,"0101000020E610000021938C9C85875EC0D925AAB706B24240",33,"525 Cherry Ave.","Los Altos","Santa Clara","CA",94022,704398,35560,41002,780960,37.39083,-122.11753,"0101000020CE1300007D0214D0874141C102CB3477771A3D41",0,0
34,"0101000020E61000003E5C72DC29895EC0AF08FEB792B94240",34,"862 Center Dr","Palo Alto","Santa Clara","CA",94301,1821990,21390,99227,1942607,37.44979,-122.14318,"0101000020CE130000568262E3404241C128166742B1353D41",0,0
35,"0101000020E61000006ABC749318845EC04A0C022B87A64240",35,"11366 Canyon View Cir","Cupertino","Santa Clara","CA",95014,3934090,16961,36126,3987177,37.301,-122.064,"0101000020CE130000C6FDCCA8073E41C1CB9DE03AA4EF3C41",396,390
36,"0101000020E6100000868F8829917E5EC008E6E8F17B9B4240",36,"158 Central Ave","Los Gatos","Santa Clara","CA",95030,2628211,24839,90799,2743849,37.21472,-121.97761,"0101000020CE130000AE00DA41DD3441C1C5330B7C43C33C41",3,3
37,"0101000020E6100000D9942BBCCB815EC055A4C2D842A04240",37,"20313 Calle Montalvo","Saratoga","Santa Clara","CA",95070,1506055,17557,63482,1587094,37.25204,-122.02806,"0101000020CE130000264489A9FE3A41C1B7D21813ACD73C41",0,0
38,"0101000020E610000080D4264EEE7B5EC0D5E76A2BF64F4240",38,"382 Calle De Los Amigos","Pacific Grove","Monterey","CA",93950,1082322,9322,93516,1185160,36.6247,-121.93642,"0101000020CE1300005A0B777DDB5041C1B54DEF15C5C63B41",0,0
39,"0101000020E610000095B7239C16745EC0B341261939434240",39,"9340 Carmel Valley Road","Carmel","Monterey","CA",93923,655838,49771,66511,772120,36.52518,-121.81388,"0101000020CE13000055C90261464241C1B106565669913B41",57,57
40,"0101000020E6100000E3C281902C785EC0EFFE78AF5A454240",40,"11 Carmel Way","Carmel","Monterey","CA",93923,2927799,13296,60287,3001382,36.54183,-121.87772,"0101000020CE130000ACB3C16CF34B41C1031FD9405F9E3B41",96,96
41,"0101000020E6100000020EA14ACD745EC0176536C8243F4240",41,"68 Chamisal Pass","Carmel","Monterey","CA",93923,3293488,8297,20845,3322630,36.49331,-121.82503,"0101000020CE130000DD6955FC014641C10469D0B803853B41",252,252
42,"0101000020E610000084BBB376DBD95DC0E99AC937DB304140",42,"4880 Casitas Pass Rd","Ventura","Ventura","CA",93001,514644,41158,34737,590539,34.38169,-119.40402,"0101000020CE13000047B0291ADC2040C1D57CCBCFA92E3741",711,693
43,"0101000020E610000095F1EF332EF05DC0D5EC815660344140",43,"535 Calle Las Caleras","Santa Barbara","Santa Barbara","CA",93109,916186,33529,28159,977874,34.40919,-119.75282,"0101000020CE130000E43226A6A15B40C14FF6B2A4D4583741",24,24
44,"0101000020E61000008E9257E718F05DC07784D38217354140",44,"3237 Campanil Dr","Santa Barbara","Santa Barbara","CA",93109,1422355,6871,99521,1528747,34.41478,-119.75152,"0101000020CE130000BBC4E1E71A5B40C1B9B29EEF145B3741",54,54
45,"0101000020E6100000EE5F596952F45DC0543541D47D384140",45,"5506 Calle Real","Santa Barbara","Santa Barbara","CA",93111,557299,24562,64335,646196,34.44134,-119.81753,"0101000020CE130000898169190F6540C19F458D19256C3741",0,0
46,"0101000020E61000004A29E8F692F45DC04F92AE997C3B4140",46,"1387 Camino Manadero","Santa Barbara","Santa Barbara","CA",93111,3361666,29752,11524,3402942,34.46474,-119.82147,"0101000020CE130000DF3B2D95786440C1E2DD640065763741",588,576
47,"0101000020E6100000FF78AF5A99F45DC07AAA436E863B4140",47,"1417 Camino Manadero","Santa Barbara","Santa Barbara","CA",93111,3428024,40823,49240,3518087,34.46504,-119.82186,"0101000020CE1300007E8CECA3856440C148D523518E763741",588,576
48,"0101000020E6100000D482177D05015EC07AFCDEA63F3B4140",48,"11566 Calle Real","Goleta","Santa Barbara","CA",93117,3957116,46872,58462,4062450,34.46288,-120.01596,"0101000020CE130000465B64ED1A8640C17D7DB163DA863741",0,0
49,"0101000020E6100000C2A38D23D6245EC009FEB7921D7B4140",49,"295 Campodonico Ave","Guadalupe","Santa Barbara","CA",93434,3171367,0,98116,3269483,34.96184,-120.57557,"0101000020CE130000792E24FF9DCA40C1ABE2B80BFF8B3841",9,9
50,"0101000020E6100000E04A766C04F25EC005A8A9656BAD4340",50,"43955 Caspar Orchard Rd","Caspar","Mendocino","CA",95460,1811665,0,86570,1898235,39.35484,-123.78152,"0101000020CE130000905F092443D741C15A47C25FAD784041",30,30
52,"0101000020E6100000F9F719170EA25EC0738577B988F74240",52,"15 Chanticleer St","Larkspur","Marin","CA",94939,2433302,9454,8359,2451115,37.93386,-122.53211,"0101000020CE1300004FF29352146541C157DB200DD6253E41",0,0
53,"0101000020E610000035B56CAD2FB45EC0518369183E0A4340",53,"69 Cherry Tree Ln","Northwest Marin","Marin","CA",94956,3751580,11793,39972,3803345,38.08002,-122.81541,"0101000020CE1300006D53B1FE748A41C197AC594CFC7D3E41",48,48
54,"0101000020E6100000FBAE08FEB7905EC0F46C567DAE0E4340",54,"312 Carter St","Vallejo","Solano","CA",94590,888772,35448,37016,961236,38.1147,-122.26123,"0101000020CE13000091E64BE9FB2D41C1D623CAAFBF583E41",0,0
55,"0101000020E61000007FD93D79587C5EC0DF32A7CB62EA4240",55,"2104 Canyon Oak Ln","Danville","Contra Costa","CA",94506,1655516,4390,85853,1745759,37.83114,-121.9429,"0101000020CE130000E1917F8FBF0A41C14A430D7AE8C33D41",90,90
56,"0101000020E61000004D2D5BEB8B8A5EC06CEC12D55BF34240",56,"151 Camelia Ln","Lafayette","Contra Costa","CA",94549,3439562,0,85191,3524753,37.90124,-122.16479,"0101000020CE13000049288F9CF22A41C195353595E6F53D41",87,87
57,"0101000020E610000039B9DFA1287C5EC04F75C8CD70DF4240",57,"3207 Casa Grande Dr","San Ramon","Contra Costa","CA",94583,3661129,0,14659,3675788,37.74563,-121.93998,"0101000020CE1300005D2B03CB500F41C15C974AD8969F3D41",0,0
58,"0101000020E61000009CA223B9FC715EC016C1FF56B22B4440",58,"33521 Cessna Ave","Paynes Creek","Tehama","CA",96075,540969,0,32080,573049,40.34138,-121.78105,"0101000020CE130000673C2DC3F65C40C12EAEDD70EAEB4041",435,414
59,"0101000020E610000039B4C876BE555EC0865AD3BCE34C4340",59,"1934 Cenacle Ln","Carmichael","Sacramento","CA",95608,2216667,14922,49520,2281109,38.6007,-121.33975,"0101000020CE130000A65B687A5F7B40C13D5DD71530D23E41",0,0
60,"0101000020E610000024B9FC87F44D5EC03C8386FE095E4340",60,"9196 Cedar Ridge Dr","Granite Bay","Placer","CA",95746,1029366,33851,53484,1116701,38.73468,-121.21805,"0101000020CE130000CDA00B36E55F40C1C43A0DBC03003F41",27,27
61,"0101000020E61000008481E7DEC3455EC01DE6CB0BB0574340",61,"4582 Carmen Dr","El Dorado Hills","El Dorado","CA",95762,1049299,39166,14153,1102618,38.68506,-121.09008,"0101000020CE13000040712EBBF44D40C1DBD972CCC7DF3E41",186,186
62,"0101000020E6100000AE64C74620625EC0EC866D8B32C34340",62,"378 Canyon Highlands Dr","Oroville","Butte","CA",95966,2664131,0,96637,2760768,39.52498,-121.53322,"0101000020CE130000CFB377331A6540C1D21C4784C9344041",21,21
63,"0101000020E6100000969526A5A0395EC0975643E21EFB4340",63,"2841 Chandler Rd","Quincy","Plumas","CA",95971,2781642,21842,47144,2850628,39.96188,-120.90043,"0101000020CE130000462A2D7A7ACD3FC1EA8DF67089754041",171,168
64,"0101000020E6100000C8073D9B55095EC0A167B3EA73A54340",64,"406 Carrie Pryor","Truckee","Nevada","CA",96161,1406942,20475,97636,1525053,39.2926,-120.14585,"0101000020CE130000FCF2427AD1253FC17BB60210D18F3F41",51,51
65,"0101000020E61000005DFE43FAED6B5DC0CEC7B5A162BC4040",65,"5 Capistrano By The Sea","Dana Point","Orange","CA",92629,3620619,17525,91825,3729969,33.47176,-117.6864,"0101000020CE130000FC609B8F86483EC101BA2AF9E31B3541",0,0
66,"0101000020E61000000664AF777F6E5DC0265305A392BE4040",66,"32408 Caribbean Dr","Dana Point","Orange","CA",92629,2358484,3096,36058,2397638,33.48885,-117.72653,"0101000020CE1300002C547461EE543EC15EA2F5C16D263541",0,0
67,"0101000020E61000008E1EBFB7E9975DC00282397AFCE64040",67,"5617 Calle De Arboles","Torrance","Los Angeles","CA",90505,3289510,31891,11960,3333361,33.80458,-118.37364,"0101000020CE130000AFDE2BCBD7173FC19D414C740BE23541",0,0
68,"0101000020E6100000D690B8C7D2975DC024B9FC87F4E74040",68,"5416 Calle Mayor","Torrance","Los Angeles","CA",90505,2547157,0,25442,2572599,33.81215,-118.37224,"0101000020CE130000B975DC5E95163FC17FAF1FE823E53541",0,0
69,"0101000020E610000007CE1951DA835DC0AC730CC85EEB4040",69,"12756 Centralia Street","Lakewood","Los Angeles","CA",90630,896922,39453,47357,983732,33.83883,-118.0602,"0101000020CE1300000A9E02A9EAA63EC16E925F0685D63541",0,0
70,"0101000020E6100000314278B471805DC00820B58993D74040",70,"19222 Chandon Ln","Huntington Beach","Orange","CA",92648,1785574,24404,22366,1832344,33.68419,-118.00694,"0101000020CE1300002B9B8C11CDA33EC125EB64CC70903541",0,0
71,"0101000020E61000002A745E6397845DC06362F3716DDC4040",71,"16555 Channel Lane","Huntington Beach","Orange","CA",92649,2830064,8718,49307,2888089,33.72209,-118.07174,"0101000020CE1300005E007AA3ACB63EC11B532149E4A53541",0,0
72,"0101000020E610000023F3C81F0CAA5DC060E5D022DB054140",72,"22204 Carbon Mesa Rd","Malibu","Los Angeles","CA",90265,3259848,33053,41365,3334266,34.04575,-118.65699,"0101000020CE1300005053D739E2613FC1E1CC2CAD38603641",306,294
73,"0101000020E61000001327F73B14B15DC039622D3E05144140",73,"29450 Cambridge Ct","Agoura Hills","Los Angeles","CA",91301,2528700,0,23146,2551846,34.15641,-118.76686,"0101000020CE130000B0724EAAA17C3FC11F83C09677983641",33,33
74,"0101000020E610000018EC866D8BB25DC0234A7B832F144140",74,"5837 Cape Horn Dr","Agoura Hills","Los Angeles","CA",91301,3799931,19505,66143,3885579,34.1577,-118.78976,"0101000020CE130000D12FB81573843FC1E28ACE25F59A3641",12,12
75,"0101000020E6100000B6847CD0B3B95DC0B5FD2B2B4D164140",75,"365 Capitan St","Newbury Park","Ventura","CA",91320,1500537,7689,87425,1595651,34.17423,-118.9016,"0101000020CE130000873D0C198EA93FC1F26CF0297CAB3641",0,0
76,"0101000020E6100000738577B988B75DC0C173EFE1921B4140",76,"2668 Calle Bienvenido","Thousand Oaks","Ventura","CA",91360,1086007,0,34861,1120868,34.21542,-118.86772,"0101000020CE13000048FF789782993FC1137F3EB710BA3641",0,0
77,"0101000020E6100000E8C1DD59BB755EC0912749D74CAE4240",77,"102 Monte Verano Ct","San Jose","Santa Clara","CA",95116,475981,5944,92028,573953,37.36172,-121.83956,"0101000020CE13000069A37585651541C13091B7C37BF43C41",0,0
78,"0101000020E610000049809A5AB6765EC0F60B76C3B6AD4240",78,"144 Basch Ave","San Jose","Santa Clara","CA",95116,758268,7634,81980,847882,37.35714,-121.85488,"0101000020CE130000A70F29D2311841C1F648EB75F6F33C41",0,0
79,"0101000020E610000048DC63E943755EC0CBD6FA22A1AD4240",79,"2648 Lombard Ave","San Jose","Santa Clara","CA",95116,810920,26478,58954,896352,37.35648,-121.83227,"0101000020CE130000FEB1864E801441C18ABF905C9AF13C41",0,0
80,"0101000020E61000008638D6C56D785EC0207BBDFBE3A14240",80,"1218 Lynhurst Way","San Jose","Santa Clara","CA",95118,912911,3542,10007,926460,37.26477,-121.8817,"0101000020CE130000FDABD8460F2241C130C7EF5F7DCF3C41",0,0
81,"0101000020E610000007D3307C44325DC00CC85EEFFE944040",81,"25271 Black Canyon Rd","Santa Ysabel","San Diego","CA",92070,3419592,22918,93872,3536382,33.16403,-116.78543,"0101000020CE130000D30B9322D5283DC16ABEF0C4DF503441",1059,972
83,"0101000020E61000004CA60A4625915EC06AF6402B30C04240",83,"1915 Carmelita Dr","San Carlos","San Mateo","CA",94070,1556838,21640,97803,1676281,37.50147,-122.2679,"0101000020CE130000B89DAEC5B45341C1F21BA0DA14573D41",0,0
84,"0101000020E6100000C616821C94C05DC05396218E751D4140",84,"4848 Calle Brisa","Camarillo","Ventura","CA",93012,992718,0,61640,1054358,34.23015,-119.00904,"0101000020CE130000215F178EFBC83FC15C697E3E60CC3641",6,6
85,"0101000020E6100000DF6C73637AB85DC0359886E123224140",85,"4246 Canario Ct","Moorpark","Ventura","CA",93021,1665916,14303,98545,1778764,34.26672,-118.88247,"0101000020CE13000052CF8DE248993FC1A1A58FB413D13641",36,33
86,"0101000020E6100000F085C954C1B85DC0DB6D179AEB244140",86,"306 Casey Rd","Moorpark","Ventura","CA",93021,1396417,40605,41482,1478504,34.28844,-118.8868,"0101000020CE1300005ECA5BFE85983FC1C8640336A8DA3641",333,312
87,"0101000020E6100000FD6A0E10CCBB5DC0697407B133254140",87,"6458 Chagall Dr","Moorpark","Ventura","CA",93021,1607859,6747,12319,1626925,34.29064,-118.93433,"0101000020CE1300003546C7B9C3A83FC123B376B7A3DF3641",411,393
88,"0101000020E6100000FC3559A31EB45DC0F91400E319204140",88,"664 Cartpath Pl","Simi Valley","Ventura","CA",93065,1671559,40033,32208,1743800,34.25079,-118.81437,"0101000020CE13000059DFAC5354833FC1D13E331B88C43641",9,9
89,"0101000020E6100000C780ECF5EE995DC05C38109205504140",89,"40206 Calle Rosalito","Santa Clarita","Los Angeles","CA",91390,1190450,0,79124,1269574,34.62517,-118.40521,"0101000020CE130000DC0EEEA82ACF3EC12FCC8CBA1A413741",1608,1494
90,"0101000020E61000000EDB166536885DC0BD1DE1B4E0494140",90,"38248 Carolside Ave","Palmdale","Los Angeles","CA",93550,1906404,14685,26640,1947729,34.57717,-118.12832,"0101000020CE130000F7F1AE1750743EC13C8AB320DC153741",0,0
91,"0101000020E610000000917EFB3A885DC0D122DBF97E4A4140",91,"38491 Carolside","Palmdale","Los Angeles","CA",93550,1539344,36515,90526,1666385,34.582,-118.1286,"0101000020CE130000A500813EEC733EC11D5FAB98EF173741",0,0
376,"0101000020E61000002B8716D9CE8D5EC0DAFE959526E94240",376,"65 Crest Rd","Piedmont","Alameda","CA",94611,3262335,19915,33134,3315384,37.82149,-122.21575,"0101000020CE130000377A2A680B3841C12D4DF6EF05D93D41",0,0
92,"0101000020E610000011C7BAB88DF05DC01F680586AC364140",92,"927 Canon Rd","Santa Barbara","Santa Barbara","CA",93110,3150502,28542,86796,3265840,34.42714,-119.75865,"0101000020CE13000098C97EFCAA5B40C13C58B0DFF0603741",27,27
93,"0101000020E6100000B64AB0389C7F5DC0DB166536C8D44040",93,"622 California St","Huntington Beach","Orange","CA",92648,2316636,43893,99800,2460329,33.66236,-117.99391,"0101000020CE130000D167F2D16CA13EC1D6040CF117863541",0,0
94,"0101000020E6100000226C787AA5B25DC070CE88D2DE344140",94,"4075 Camulos St","Piru","Ventura","CA",93040,1940341,20219,15874,1976434,34.41305,-118.79135,"0101000020CE13000065081875836A3FC16F1FE4246A073741",315,297
95,"0101000020E6100000BB0A293FA9985DC0B2D7BB3FDEE74040",95,"518 Calle Miramar","Redondo Beach","Los Angeles","CA",90277,2504075,21701,79505,2605281,33.81147,-118.38533,"0101000020CE130000F5D3830F391B3FC1D014FDBDF2E53541",0,0
96,"0101000020E610000061545227A0975DC05DF92CCF83EF4040",96,"2317 Carnegie Ln","Redondo Beach","Los Angeles","CA",90278,1317985,34333,52015,1404333,33.87121,-118.36915,"0101000020CE1300002A80202E7E0F3FC1B645B8C9F2FD3541",0,0
97,"0101000020E61000003F52448655A05DC0D34D621058394140",97,"21137 Cedarfalls Dr","Santa Clarita","Los Angeles","CA",91350,1685606,11667,9698,1706971,34.448,-118.50522,"0101000020CE130000437EE4E5DE033FC1D86E424330FE3641",0,0
98,"0101000020E610000007CE1951DA9F5DC0E15D2EE23B394140",98,"28005 Charles Dr","Santa Clarita","Los Angeles","CA",91350,1578266,26795,74168,1679229,34.44714,-118.4977,"0101000020CE130000E1F420015B013FC15DCA63F731FD3641",0,0
99,"0101000020E6100000095053CBD6A25DC0319413ED2A384140",99,"23365 Camford Pl","Valencia","Los Angeles","CA",91354,3266572,0,71414,3337986,34.43881,-118.54436,"0101000020CE130000574B39E75C123FC1323AC0498FFD3641",0,0
100,"0101000020E61000003FC6DCB5848A5DC0C2A38D23D61A4140",100,"4187 Canyon Crest Rd","Altadena","Los Angeles","CA",91001,638916,5157,64868,708941,34.20966,-118.16435,"0101000020CE13000054A17AD3DFA53EC17640AE11A67C3641",282,276
101,"0101000020E61000008D976E12838A5DC0D74CBED9E61A4140",101,"4221 Canyon Crest Rd","Altadena","Los Angeles","CA",91001,1230030,24763,48405,1303198,34.21017,-118.16425,"0101000020CE130000894EA8C0C9A53EC158A96E6CDB7C3641",282,276
102,"0101000020E6100000B43C0FEECE825DC012A5BDC117164140",102,"761 Canyon Crest Dr","Sierra Madre","Los Angeles","CA",91024,1850930,0,71774,1922704,34.1726,-118.04388,"0101000020CE1300006CD85F30B87F3EC12DF05AEAFA623641",0,0
103,"0101000020E61000001B81785DBF865DC0CC0BB08F4E114140",103,"636 Canterbury Rd","San Marino","Los Angeles","CA",91108,763336,35016,34307,832659,34.13521,-118.10543,"0101000020CE130000540AE9A3E3983EC19DF25F5928583641",0,0
104,"0101000020E6100000B493C151F2825DC0FFCF61BEBCF84040",104,"10032 Carmenita Rd","Whittier","Los Angeles","CA",90605,2266823,21677,71317,2359817,33.94326,-118.04604,"0101000020CE130000318B229D7D973EC17FC8857DB6013641",0,0
105,"0101000020E61000005778978BF8825DC0168733BF9AF74040",105,"10832 Carmenita Rd","Whittier","Los Angeles","CA",90605,1288986,0,66469,1355455,33.93441,-118.04642,"0101000020CE130000586553ED82983EC16C507904FCFD3541",0,0
106,"0101000020E610000076711B0DE0775DC056B77A4E7A074140",106,"19449 Cameron Ave","Covina","Los Angeles","CA",91724,2424966,42727,47189,2514882,34.05842,-117.87305,"0101000020CE13000097A10DBBA94F3EC16FD7A2C675243641",0,0
107,"0101000020E61000008386FE092E725DC01B9E5E29CB044140",107,"61 Calle Del Mar","Pomona","Los Angeles","CA",91766,3738415,20013,22773,3781201,34.03745,-117.78406,"0101000020CE130000F7FF2CB4BA323EC1C88D14EF4A143641",0,0
108,"0101000020E610000009F9A067B3745DC0F819170E84084140",108,"262 Calle Concordia","San Dimas","Los Angeles","CA",91773,2117661,0,13033,2130694,34.06653,-117.82345,"0101000020CE130000A9AB565E923D3EC12FA6A1C7DC233641",75,75
109,"0101000020E6100000F5108DEE20785DC0FE48111956F54040",109,"248 Camphor Cir","Brea","Orange","CA",92821,3981650,40026,97667,4119343,33.91669,-117.87701,"0101000020CE130000D62E5921295F3EC1155DB9298BE83541",0,0
110,"0101000020E6100000D3BCE3141D7D5DC01AA88C7F9FF14040",110,"1885 Catlin St","Fullerton","Orange","CA",92833,2586914,3103,69343,2659360,33.88768,-117.9549,"0101000020CE130000704016C83F7D3EC1872086D299E23541",0,0
111,"0101000020E6100000E94317D4B7745DC0363CBD5296F14040",111,"5064 Casa Loma Ave","Yorba Linda","Orange","CA",92886,1162879,34882,50805,1248566,33.8874,-117.82372,"0101000020CE13000067354B4D774F3EC1B958E24ABDD73541",0,0
112,"0101000020E61000003A1E3350195D5DC089247A19C50E4140",112,"7651 Cherimoya Ct","Fontana","San Bernardino","CA",92336,3969635,34010,63484,4067129,34.11539,-117.45467,"0101000020CE130000B8F13C013AB83DC1C1DC3391DC1A3641",0,0
113,"0101000020E61000000C76C3B6455F5DC0E4DA5031CE334140",113,"7930 Cedar St.","Phelan","San Bernardino","CA",92371,1837349,40147,34888,1912384,34.40473,-117.48863,"0101000020CE13000091DB685EBCA73DC17E1DC633B8983641",1014,984
114,"0101000020E61000000C3CF71E2E675DC0AA4885B1852C4140",114,"5364 Chaumont Dr","Wrightwood","San Bernardino","CA",92397,3667053,5786,54850,3727689,34.34783,-117.61219,"0101000020CE130000D10E94103DD83DC102C27C0F688A3641",1086,1038
115,"0101000020E610000033164D67275D5DC0F9DA334B020C4140",115,"16012 Ceres Ave.","Fontana","San Bernardino","CA",92335,2670055,31668,88729,2790452,34.09382,-117.45553,"0101000020CE130000BC241C73A2BA3DC1FDC6A16FC0113641",0,0
116,"0101000020E6100000D8817346945E5DC02BC1E270E60B4140",116,"14995 Ceres Ave","Fontana","San Bernardino","CA",92335,3252198,44213,22918,3319329,34.09297,-117.4778,"0101000020CE1300001A6BA87D7BC23DC1330FC8A52C133641",0,0
117,"0101000020E610000029D027F2245B5DC0B532E197FAF94040",117,"5556 Central Ave","Riverside","Riverside","CA",92504,3995013,36827,80982,4112822,33.95296,-117.42413,"0101000020CE130000533B02A16EBD3DC1691C55C74CD33541",0,0
118,"0101000020E6100000A9BC1DE1B4645DC05CACA8C134F44040",118,"2742 Cherokee Pl","Norco","Riverside","CA",92860,2058380,45019,92995,2196394,33.90786,-117.57354,"0101000020CE130000C6DC90E20BF63DC1041A1FFE20CC3541",0,0
119,"0101000020E61000007E18213CDA5A5DC09FE57970774A4140",119,"18217 Cherimoya Rd","Adelanto","San Bernardino","CA",92301,2831760,22301,65995,2920056,34.58177,-117.41957,"0101000020CE1300009A5E5A3F787E3DC1E5DF2AD096DE3641",24,24
120,"0101000020E6100000B806B64AB0585DC0C2DD59BBED3E4140",120,"13257 Cardinal Rd","Victorville","San Bernardino","CA",92392,2224745,27680,95484,2347909,34.49163,-117.38576,"0101000020CE13000066D132428A7B3DC16AB2D37585B53641",54,54
121,"0101000020E6100000508D976E124B5DC0F775E09C11454140",121,"15850 Central Rd","Apple Valley","San Bernardino","CA",92307,826882,0,75288,902170,34.5396,-117.173,"0101000020CE130000535F772E132D3DC1A536BCA824B93641",417,411
122,"0101000020E6100000AD2F12DA72485DC068E89FE0626D4140",122,"3805 Capella Dr","Barstow","San Bernardino","CA",92311,2719497,20165,68780,2808442,34.85458,-117.13201,"0101000020CE130000A1F8902281003DC168E82ECC273C3741",3,3
123,"0101000020E610000076374F75C8495DC071AC8BDB68084140",123,"1465 Campus Ave","Redlands","San Bernardino","CA",92374,553272,7602,60440,621314,34.0657,-117.15286,"0101000020CE13000037B4994CC6533DC18E1855DCB4ED3541",0,0
124,"0101000020E610000072F90FE9B74B5DC07AC2120F28234140",124,"1346 Calgary Dr","Lake Arrowhead","San Bernardino","CA",92352,1606080,0,16973,1623053,34.27466,-117.1831,"0101000020CE130000D70948D0284A3DC137CBEEF114493641",483,483
125,"0101000020E61000009014916115515DC0917EFB3A70124140",125,"2894 Cedar St","San Bernardino","San Bernardino","CA",92404,3313289,26398,19233,3358920,34.14405,-117.26693,"0101000020CE130000D409FA58FE733DC1E3EAEB0319183641",0,0
126,"0101000020E61000005E4BC8073D455DC04182E2C798034140",126,"12386 Cambria Dr","Yucaipa","San Bernardino","CA",92399,1644245,26972,43971,1715188,34.0281,-117.08185,"0101000020CE130000A19D232C993E3DC1728CA5B717D83541",456,435
127,"0101000020E61000000A85083884765DC075B0FECF61CE4040",127,"34 Carmel Bay Dr","Corona Del Mar","Orange","CA",92625,743341,26238,84137,853716,33.61236,-117.85182,"0101000020CE130000AB042D3EA3743EC10B1F12D429653541",0,0
128,"0101000020E610000051BD35B055765DC0E92B483316CD4040",128,"43 Canyon Ter","Newport Coast","Orange","CA",92657,3964110,0,43556,4007666,33.60224,-117.84898,"0101000020CE13000010843B08A6743EC1A7ADC385A1603541",21,21
129,"0101000020E6100000C8B5A1629C755DC09D6340F67ACB4040",129,"25 Channel Vis","Newport Coast","Orange","CA",92657,1474921,0,57625,1532546,33.58969,-117.83767,"0101000020CE130000144DFD64EE713EC149AB35135F5A3541",138,138
218,"0101000020E61000009E29745E63915EC0B9DFA128D0274340",218,"1110 Clark St","Napa","Napa","CA",94558,3726959,34018,66006,3826983,38.31104,-122.27169,"0101000020CE13000040EF089BF52341C18E67CCD96AAC3E41",0,0
130,"0101000020E6100000849ECDAACF775DC01D554D1075CF4040",130,"18 Canyon Fairway Dr","Newport Beach","Orange","CA",92660,594431,39383,63219,697033,33.62076,-117.87205,"0101000020CE13000057505345E47A3EC14D14C474646A3541",0,0
131,"0101000020E610000025068195437D5DC08B1A4CC3F0D94040",131,"17935 Cashew St","Fountain Valley","Orange","CA",92708,1953811,11793,36357,2001961,33.70266,-117.95725,"0101000020CE130000195FD5AF8F903EC19AD7898C30943541",0,0
132,"0101000020E6100000FB96395D16735DC0295C8FC2F5E04040",132,"1210 Castlegate Ln","Santa Ana","Orange","CA",92705,1387669,15860,86158,1489687,33.7575,-117.79824,"0101000020CE130000AA0C60F774533EC106F81617739E3541",0,0
133,"0101000020E61000005C72DC291D725DC0D2E3F736FDE14040",133,"11162 Cherry Hill Dr","North Tustin","Orange","CA",92705,3189753,5048,95034,3289835,33.76554,-117.78303,"0101000020CE130000B8777D7C564D3EC120BE98DF9FA03541",0,0
134,"0101000020E6100000C190D5AD9E715DC0614F3BFC35D14040",134,"126 Canyon Creek","Irvine","Orange","CA",92603,2023277,16358,7693,2047328,33.63446,-117.77531,"0101000020CE13000038BC8B15A1573EC1C81ECBCB49683541",255,252
136,"0101000020E6100000FE9AAC510FBF5DC0EC34D25279D34240",136,"1115 Forest Trail","Mammoth Lakes","Mono","CA",93546,2721546,30351,91441,2843338,37.65214,-118.98531,"0101000020CE1300006DAC63A14A5A3EC1E7B5C2F267773C41",6,6
137,"0101000020E6100000B1F9B836546C5DC0614F3BFC35D14040",137,"25073 Campo Rojo","Lake Forest","Orange","CA",92630,1844051,44846,48115,1937012,33.63446,-117.69264,"0101000020CE13000079A03C86A73A3EC14CB7A6338B613541",0,0
138,"0101000020E6100000020EA14ACD705DC0006F8104C5C34040",138,"992 Capistrano Ave","Laguna Beach","Orange","CA",92651,594383,15013,43558,652954,33.52945,-117.76253,"0101000020CE1300009C23B9118D5D3EC122365A6D9F3A3541",0,0
139,"0101000020E6100000ACA8C1340C715DC058C51B9947C64040",139,"1590 Caribbean Way","Laguna Beach","Orange","CA",92651,3918955,33674,84311,4036940,33.54906,-117.76637,"0101000020CE130000DEC3B8C5F45C3EC1925423E244433541",255,255
140,"0101000020E6100000CAC342AD69585DC0A9C1340C1FD94040",140,"3546 Cherry Blossom Ln","Lake Elsinore","Riverside","CA",92530,2147476,15742,40344,2203562,33.69626,-117.38145,"0101000020CE1300008B16277584C73DC121554862AB623541",18,18
141,"0101000020E61000000F971C774A655DC0713D0AD7A3CC4040",141,"27 Canada Oaks","Trabuco Canyon","Orange","CA",92679,3620453,30348,34261,3685062,33.59875,-117.58267,"0101000020CE13000015354C489C173EC171BA64FF6D493541",159,150
142,"0101000020E6100000D313967840655DC0D9EBDD1FEFCD4040",142,"53 Cherry Hills Dr","Trabuco Canyon","Orange","CA",92679,2401931,49953,75051,2526935,33.60886,-117.58206,"0101000020CE13000074FA3B3E67163EC109C88EA0AD4D3541",159,150
143,"0101000020E6100000A27F828B15575DC0FA6184F068974040",143,"1132 California St","Oceanside","San Diego","CA",92054,3574056,0,92246,3666302,33.18289,-117.36069,"0101000020CE130000990B947A27F23DC12942965DB1863441",0,0
144,"0101000020E6100000876D8B321B665DC02788BA0F40B24040",144,"4087 Calle Isabella","San Clemente","Orange","CA",92672,629453,0,98098,727551,33.39258,-117.59541,"0101000020CE130000C1D8E5C157303EC143A762BBD4F23441",0,0
145,"0101000020E61000007C61325530665DC0AE122C0E67B24040",145,"4024 Calle Lisa","San Clemente","Orange","CA",92672,2874729,31322,78301,2984352,33.39377,-117.5967,"0101000020CE130000D073B1F5AD303EC153FF3D0E71F33441",0,0
146,"0101000020E61000002861A6ED5F675DC0D97745F0BFB54040",146,"338 Cazador Lane","San Clemente","Orange","CA",92672,3161089,31669,57334,3250092,33.41992,-117.61523,"0101000020CE130000238868B79F343EC177623DF00F003541",0,0
147,"0101000020E6100000F7C77BD5CA525DC0B24B546F0D9C4040",147,"1324 Calle Ultimo","Oceanside","San Diego","CA",92056,1663478,16401,33781,1713660,33.21916,-117.29363,"0101000020CE130000DCCB5738FAD63DC126CE3C74B6903441",0,0
148,"0101000020E6100000F67F0EF3E5535DC079AF5A99F09F4040",148,"4652 Calle De Retiro","Oceanside","San Diego","CA",92057,2621943,43392,83307,2748642,33.24953,-117.31091,"0101000020CE1300003573AC8C20DA3DC1BFD7ACD4039F3441",0,0
149,"0101000020E6100000807D74EACA375DC09F3C2CD49AAA4040",149,"33957 Canfield Rd","Pala","San Diego","CA",92059,3506846,0,48085,3554931,33.33285,-116.87176,"0101000020CE13000070E4F5414C373DC13D744636869F3441",1188,1122
150,"0101000020E6100000E622BE13B34A5DC02310AFEB17C84040",150,"39637 Cedarwood Dr","Murrieta","Riverside","CA",92563,2719121,0,39567,2758688,33.56323,-117.16718,"0101000020CE13000023956F6137893DC10C79B0EAF3183541",0,0
151,"0101000020E6100000BED9E6C6F4485DC007CE1951DABF4040",151,"29786 Camino Del Sol","Temecula","Riverside","CA",92592,2743601,14239,40035,2797875,33.49885,-117.13994,"0101000020CE1300007AE973F9D7853DC15C348A1964FB3441",45,45
152,"0101000020E6100000A323B9FC87505DC02D5BEB8B84664040",152,"642 Chalcedony St","San Diego","San Diego","CA",92109,2635212,19166,26736,2681114,32.80092,-117.2583,"0101000020CE130000AF45B566F6F23DC11FEC42EC15DC3341",0,0
153,"0101000020E6100000E882FA9639515DC071033E3F8C844040",153,"1281 Caminito Septimo","Cardiff","San Diego","CA",92007,2763236,11766,47057,2822059,33.03553,-117.26914,"0101000020CE130000CCFDED101CE03DC12DE5DC95AC403441",0,0
154,"0101000020E610000024D1CB2896515DC04E9CDCEF50844040",154,"838 Cathy Ln","Cardiff","San Diego","CA",92007,3241190,17394,99601,3358185,33.03372,-117.27479,"0101000020CE1300005BAC934D48E23DC166B4F1085C403441",0,0
155,"0101000020E61000003480B740824E5DC03F74417DCB884040",155,"3571 Camino Arena","Carlsbad","San Diego","CA",92009,809010,10634,74359,894003,33.06871,-117.2267,"0101000020CE130000D869053CE6CD3DC13DB0AF545E4B3441",0,0
156,"0101000020E61000005DF92CCF834F5DC00BD28C45D37D4040",156,"3334 Caminito Cabo Viejo","Del Mar","San Diego","CA",92014,1655388,7986,20397,1683771,32.98301,-117.24242,"0101000020CE130000EC7F8FCDBCDB3DC1725A8AD332283441",0,0
157,"0101000020E6100000ABB2EF8AE04F5DC0CB2DAD86C47D4040",157,"15791 Caminito Cantaras","Del Mar","San Diego","CA",92014,526432,41458,75039,642929,32.98256,-117.24808,"0101000020CE130000FC86499BC8DD3DC1B59A496A76283441",0,0
158,"0101000020E610000085B69C4B714B5DC02CBCCB457C7F4040",158,"16791 Camino Sierra Del Sur","Del Mar","San Diego","CA",92014,997639,31046,33952,1062637,32.99598,-117.17879,"0101000020CE130000298008F8F8C33DC1A66F633B9A283441",0,0
159,"0101000020E6100000715AF0A2AF4A5DC09ACE4E0647854040",159,"7772 Calle Amanacer","Escondido","San Diego","CA",92029,544060,45929,77620,667609,33.04123,-117.16697,"0101000020CE130000582435C86EBB3DC121F7290FE53A3441",24,24
160,"0101000020E61000009161156F644A5DC0C251F2EA1C874040",160,"7974 Camino De Arriba","Escondido","San Diego","CA",92029,1896915,48295,33766,1978976,33.05557,-117.16238,"0101000020CE1300007D77B7CA6DB83DC1AA8F08EE9F403441",414,414
161,"0101000020E610000096438B6CE74F5DC085B69C4B716D4040",161,"2587 Calle Del Oro","La Jolla","San Diego","CA",92037,1059804,5079,91533,1156416,32.85502,-117.2485,"0101000020CE1300003762D35342EA3DC1B5DC906149F23341",0,0
162,"0101000020E6100000734BAB2171CF5DC072BF4351A0234140",162,"4019 Gettysburg St","Ventura","Ventura","CA",93003,735933,0,14941,750874,34.27833,-119.24128,"0101000020CE1300005FF727FF300A40C1AAEC57E9C5F43641",0,0
163,"0101000020E61000003C31EBC550BA5DC0124E0B5EF41D4140",163,"1917 Freeborn Way","Santa Rosa Valley","Ventura","CA",93012,3303727,6381,96615,3406723,34.23402,-118.91118,"0101000020CE130000DC49D96FA5A63FC195CAD8CDA7C53641",87,87
164,"0101000020E6100000A306D3307C8A5DC03A3B191C251B4140",164,"4334 Canyon Crest Rd","Altadena","Los Angeles","CA",91001,2491920,9027,52263,2553210,34.21207,-118.16383,"0101000020CE13000039CA124C73A53EC1C5DC6931A17D3641",282,276
165,"0101000020E61000000E15E3FC4D885DC0EA78CC4065104140",165,"1054 Canon Dr","San Marino","Los Angeles","CA",91108,2880925,34346,20908,2936179,34.12809,-118.12976,"0101000020CE1300001C7A364B12A23EC126C701A023573641",15,15
166,"0101000020E6100000E50AEF7211655DC04A07EBFF1CEE4040",166,"871 Capistrano St","Corona","Riverside","CA",92882,1969660,12603,98401,2080664,33.86026,-117.57919,"0101000020CE13000028ADA5AAB2FC3DC16CD2E46157B83541",0,0
167,"0101000020E6100000E6AE25E483505DC0D578E92631D44040",167,"31974 Cedarhill Ln","Lake Elsinore","Riverside","CA",92532,2348897,12912,28265,2390074,33.65775,-117.25805,"0101000020CE130000AE378C52FC9F3DC1D453939A69483541",144,144
168,"0101000020E61000009A25016A6A515DC0D50968226C684040",168,"5720 Chelsea Ave","La Jolla","San Diego","CA",92037,1468076,38417,94038,1600531,32.8158,-117.27212,"0101000020CE1300000DDC567E6CF63DC183B0D52B86E33341",0,0
169,"0101000020E6100000F302ECA3534B5DC02922C32ADE804040",169,"17264 Calle Mayor","Rancho Santa Fe","San Diego","CA",92067,2118197,28685,22113,2168995,33.00678,-117.17698,"0101000020CE130000528274A74AC23DC16A4347950C2D3441",0,0
170,"0101000020E6100000F06DFAB31F4B5DC0B7B41A12F7804040",170,"17435 Calle Mayor","Rancho Santa Fe","San Diego","CA",92067,590415,0,78560,668975,33.00754,-117.17381,"0101000020CE130000DC45E7D118C13DC162B834411E2D3441",36,36
171,"0101000020E61000001361C3D32B4B5DC0696FF085C9804040",171,"17677 Calle Mayor","Rancho Santa Fe","San Diego","CA",92067,2906564,43260,85624,3035448,33.00615,-117.17455,"0101000020CE1300002141F91D7EC13DC19F942F25962C3441",27,27
172,"0101000020E6100000F0A7C64B374B5DC0C6504EB4AB804040",172,"17704 Calle Mayor","Rancho Santa Fe","San Diego","CA",92067,976569,26186,9259,1012014,33.00524,-117.17525,"0101000020CE130000BF72B6F4D3C13DC1531B1F76412C3441",0,0
173,"0101000020E6100000D28C45D3D94B5DC0DEC83CF207874040",173,"18438 Calle La Serra","Rancho Santa Fe","San Diego","CA",92091,1550158,27404,43926,1621488,33.05493,-117.18517,"0101000020CE1300006C77A04D8CC03DC14E24649B2D423441",129,129
174,"0101000020E6100000CBD6FA22A14B5DC04243FF0417874040",174,"18520 Calle La Serra","Rancho Santa Fe","San Diego","CA",92091,3386337,33822,74784,3494943,33.05539,-117.18171,"0101000020CE130000C27889CB47BF3DC11C1293B118423441",6,6
175,"0101000020E610000015A930B6104C5DC0747B4963B4864040",175,"6758 Calle Ponte Bella","Rancho Santa Fe","San Diego","CA",92091,3999930,49951,6423,4056304,33.05238,-117.18852,"0101000020CE1300004D10916FFAC13DC13A5134C85C413441",6,6
176,"0101000020E61000003C889D29744E5DC05969520ABA6D4040",176,"4035 Caminito Terviso","San Diego","San Diego","CA",92122,1903250,42598,95122,2040970,32.85724,-117.22584,"0101000020CE130000DD79909D03E23DC131DF42B467F13341",0,0
177,"0101000020E610000082734694F64A5DC04B3CA06CCA754040",177,"11104 Caminito Inocenta","San Diego","San Diego","CA",92126,2470709,31090,76411,2578210,32.92024,-117.1713,"0101000020CE13000097EBBAF79DC83DC1A7AEE930CD073441",144,144
178,"0101000020E6100000315F5E807D445DC04165FCFB8C7F4040",178,"12197 Caminito Corriente","San Diego","San Diego","CA",92128,765943,0,95106,861049,32.99649,-117.07016,"0101000020CE13000077C0E1CC7B9D3DC15EC9E39121203441",0,0
179,"0101000020E610000020240B98C0475DC0DCD7817346784040",179,"9386 Chabola Rd","San Diego","San Diego","CA",92129,1894354,49250,59866,2003470,32.93965,-117.12113,"0101000020CE1300006AC91595FBB43DC1CCC8A9A1080C3441",6,6
180,"0101000020E610000040C1C58A1A445DC0103B53E8BC924040",180,"1065 Camellia St","Escondido","San Diego","CA",92027,3278600,27521,9524,3315645,33.14639,-117.06412,"0101000020CE130000EC84F771FA8C3DC168916FE2675F3441",0,0
181,"0101000020E61000002844C02154415DC0BF60376C5B844040",181,"14333 Cascade Crossing","Poway","San Diego","CA",92064,694580,11053,25456,731089,33.03404,-117.02076,"0101000020CE130000D9E9627A68883DC11284B57D2A2C3441",492,480
182,"0101000020E61000007D96E7C1DD3D5DC09CDCEF5014604040",182,"3919 Calavo Dr","La Mesa","San Diego","CA",91941,1062769,0,55147,1117916,32.75062,-116.96666,"0101000020CE13000038EADD404D903DC1E3AC05A453AF3341",21,21
230,"0101000020E6100000569A94826E155EC0895E46B1DCA64340",230,"58667 Corn Lily Ln","Truckee","Placer","CA",96161,2833869,0,52609,2886478,39.30361,-120.33487,"0101000020CE130000773A9F5AA7613FC1F57C427166A43F41",90,90
183,"0101000020E6100000137EA99F373B5DC04E97C5C4E6674040",183,"1174 Carnelian St","El Cajon","San Diego","CA",92021,3864328,17148,96699,3978175,32.81173,-116.92527,"0101000020CE1300003BCE9F7CC97B3DC1BC554FB405C63341",0,0
184,"0101000020E61000004030478FDFBF5DC05019FF3EE3D24240",184,"821 Canyon Blvd","Mammoth Lakes","Mono","CA",93546,3363677,0,58350,3422027,37.64756,-118.99802,"0101000020CE130000F702E509FC5E3EC13F8153B77F763C41",6,6
185,"0101000020E6100000FF21FDF6751C5DC015C616821CE44040",185,"36648 Calle Oeste","Cathedral City","Riverside","CA",92234,2077663,34265,93030,2204958,33.78212,-116.4447,"0101000020CE130000AC9685C9CF763CC17170B1DBBF3D3541",267,264
186,"0101000020E61000000725CCB4FD135DC04E62105839D44040",186,"77530 Calle Arroba","La Quinta","Riverside","CA",92253,3654710,28423,28627,3711760,33.658,-116.31236,"0101000020CE130000556D0519DB533CC1D9D14797B3FE3441",0,0
187,"0101000020E61000001E1B81785D115DC0A4C2D84290D74040",187,"50119 Camino Privado","La Quinta","Riverside","CA",92253,1856431,25483,97384,1979298,33.68409,-116.27133,"0101000020CE130000174CA33A05433CC1F1183153B3063541",0,0
188,"0101000020E61000000FD1E80E620F5DC040D9942BBCCF4040",188,"81571 Carboneras","La Quinta","Riverside","CA",92253,670477,0,52669,723146,33.62293,-116.24036,"0101000020CE130000D3E95F9CC63D3CC1D164FD8842EA3441",0,0
189,"0101000020E610000078D1579066185DC00118CFA0A1D74040",189,"49655 Canyon View Dr","Palm Desert","Riverside","CA",92260,3129542,38311,54094,3221947,33.68462,-116.38126,"0101000020CE13000013C360BF9A693CC18CA72D65510F3541",0,0
190,"0101000020E6100000834C327216185DC0E1D1C6116BDD4040",190,"43838 Carmel Cir","Palm Desert","Riverside","CA",92260,1681922,0,63419,1745341,33.72983,-116.37637,"0101000020CE130000D7CBE136B0633CC12958679838223541",0,0
191,"0101000020E6100000FC3559A31E185DC07E52EDD3F1DC4040",191,"73783 Catalina Way","Palm Desert","Riverside","CA",92260,2393079,9961,69743,2472783,33.72613,-116.37687,"0101000020CE13000049A0EA1E35643CC14DE4D07DAE203541",0,0
192,"0101000020E61000008AB0E1E9951A5DC063B9A5D590E44040",192,"30 Canyon Crk","Rancho Mirage","Riverside","CA",92270,3110150,40226,9282,3159658,33.78567,-116.4154,"0101000020CE130000C9A77C1D336C3CC1344C72A4043D3541",0,0
193,"0101000020E61000006EA301BC051A5DC022AB5B3D27E54040",193,"12 Channel Ct","Rancho Mirage","Riverside","CA",92270,3627447,19250,64975,3711672,33.79026,-116.4066,"0101000020CE130000D297534EAF683CC12ADBBA3E4D3E3541",0,0
194,"0101000020E6100000D5264EEE771E5DC06891ED7C3FCD4040",194,"61262 Chalet Dr","Mountain Center","Riverside","CA",92561,889228,6450,82117,977795,33.6035,-116.47607,"0101000020CE1300009D37AFDB7B923CC1929B7F4303F43441",384,381
195,"0101000020E610000030F5F3A622235DC0D00F238447EB4040",195,"257 Camino Sur","Palm Springs","Riverside","CA",92262,3766893,26692,88251,3881836,33.83812,-116.54899,"0101000020CE130000401204AA28963CC158A70358A35D3541",0,0
196,"0101000020E6100000C18BBE8234235DC0D00F238447EB4040",196,"330 Camino Sur","Palm Springs","Riverside","CA",92262,1773396,28911,50664,1852971,33.83812,-116.55008,"0101000020CE130000E11F4C7C8A963CC15A150CD5B85D3541",0,0
197,"0101000020E61000003255302AA9275DC0E78C28ED0DF24040",197,"15804 Cherry Cove","Palm Springs","Riverside","CA",92262,882507,47109,77655,1007271,33.89105,-116.6197,"0101000020CE13000081B88EC5F8A93CC145E38150A7793541",0,0
198,"0101000020E6100000DC2E34D7691C5DC0B5E0455F410E4140",198,"7787 Cherokee","Yucca Valley","San Bernardino","CA",92284,2894235,46680,74228,3015143,34.11137,-116.44396,"0101000020CE130000CCCB00F8DE573CC1720FF6121BCA3541",0,0
199,"0101000020E610000010E9B7AF03A75CC08B37328FFC694140",199,"1954 Casa Linda St","Needles","San Bernardino","CA",92363,1825523,0,69157,1894680,34.82802,-114.6096,"0101000020CE13000022EFF0EFAE9839C1589684C74B773641",0,0
200,"0101000020E6100000280F0BB5A69D5EC0159161156FC04240",200,"1196 Colombus St","Half Moon Bay","San Mateo","CA",94019,1241149,0,60008,1301157,37.50339,-122.4633,"0101000020CE130000AB74DF8EBB7341C16B34BE48326A3D41",0,0
201,"0101000020E61000001956F146E6895EC0A80018CFA0B54240",201,"2120 Columbia St","Palo Alto","Santa Clara","CA",94306,1406942,39128,38462,1484532,37.41897,-122.15468,"0101000020CE1300008CCC571EFB4541C17F00441EC7293D41",0,0
202,"0101000020E61000000820B58993895EC075029A081BB64240",202,"2267 Cornell Street","Palo Alto","Santa Clara","CA",94306,2778526,13345,84116,2875987,37.4227,-122.14963,"0101000020CE130000884E454DED4441C19DB6CF1AE12A3D41",0,0
203,"0101000020E610000061FD9FC37C7D5EC0371AC05B20B54240",203,"4252 Cosenza Loop","San Jose","Santa Clara","CA",95134,2887619,3797,38218,2929634,37.41505,-121.96074,"0101000020CE130000DA9220ED3E2641C117AF596924163D41",0,0
204,"0101000020E6100000B29DEFA7C6815EC0BFB7E9CF7EAC4240",204,"584 Connemara Way","Sunnyvale","Santa Clara","CA",94087,3628766,26043,84511,3739320,37.34762,-122.02775,"0101000020CE130000EFA3650F493541C1F4AB6B6FECFF3C41",0,0
205,"0101000020E61000001EC4CE143A835EC0F7AFAC34298D4240",205,"10559 Creekwood Dr","Felton","Santa Cruz","CA",95018,3161672,0,38599,3200271,37.10282,-122.05042,"0101000020CE130000491E8E89874741C10C09BFC6DE9A3C41",330,327
206,"0101000020E6100000A661F88898805EC0F437A110019F4240",206,"19277 Citrus Ln","Saratoga","Santa Clara","CA",95030,3931650,45910,39944,4017504,37.24222,-122.00931,"0101000020CE130000CE6643567A3841C1791EFF2ACBD13C41",183,183
207,"0101000020E61000006D3997E2AA7E5EC0554D10751F9C4240",207,"59 Cleland Ave","Los Gatos","Santa Clara","CA",95030,756936,49009,76937,882882,37.21971,-121.97918,"0101000020CE130000B1114C38D43441C134DFC22783C53C41",21,21
208,"0101000020E610000004560E2DB27D5EC065C746205E7B4240",208,"4265 Court Dr","Santa Cruz","Santa Cruz","CA",95062,2581531,14628,89927,2686086,36.96381,-121.964,"0101000020CE130000F88F8A546E4141C19CA9F71740583C41",0,0
209,"0101000020E6100000FB7953910A2D5EC0910A630B41A24140",209,"776 Clearview Ln","San Luis Obispo","San Luis Obispo","CA",93405,2815407,43718,46004,2905129,35.26761,-120.70377,"0101000020CE130000293948D45BCF40C162E12132C9183941",27,27
210,"0101000020E6100000680586AC6E715EC01E166A4DF3A24240",210,"5527 Country Club Pkwy","San Jose","Santa Clara","CA",95138,2097069,23835,7698,2128602,37.27305,-121.77238,"0101000020CE1300006F905871810F41C184DE2D63E9C83C41",0,0
211,"0101000020E610000012F758FAD0175EC03BDF4F8D97124240",211,"629 College Ave","Coalinga","Fresno","CA",93210,3563912,29938,54837,3648687,36.14525,-120.37213,"0101000020CE130000C6302382306640C1848FE694366E3A41",12,12
212,"0101000020E6100000FA27B85851EB5DC0A228D027F2384140",212,"446 Conejo Rd.","Santa Barbara","Santa Barbara","CA",93103,2082045,0,39937,2121982,34.44489,-119.67684,"0101000020CE1300008F7930AD974C40C1B485DBB541613741",309,306
213,"0101000020E6100000AD86C43D96EA5DC0C8B5A1629C374140",213,"180 Coronada Circle","Santa Barbara","Santa Barbara","CA",93108,3933579,14117,16629,3964325,34.43446,-119.66542,"0101000020CE1300006DA4FCDF2E4B40C1FF150BC3D65B3741",6,6
214,"0101000020E6100000E76F422102F05DC06440F67AF7334140",214,"3259 Cliff Dr","Santa Barbara","Santa Barbara","CA",93109,2977324,6511,18575,3002410,34.40599,-119.75013,"0101000020CE130000AB3EA506575B40C17127D9443D573741",0,0
215,"0101000020E6100000A48D23D6E2F75DC01DC9E53FA4374140",215,"37 Colusa Dr","Goleta","Santa Barbara","CA",93117,3673201,31103,95749,3800053,34.4347,-119.87322,"0101000020CE130000C2835EA3066F40C134E404A4426E3741",0,0
216,"0101000020E6100000D6C56D34801B5EC0815B77F3547B4140",216,"1115 Christina St","Santa Maria","Santa Barbara","CA",93454,565595,24523,32177,622295,34.96353,-120.4297,"0101000020CE1300007379EF2593B140C1F9BFD37B8D7F3841",3,3
217,"0101000020E6100000087767EDB6A55EC06002B7EEE6014340",217,"142 Crane Drive","San Anselmo","Marin","CA",94960,2279425,37341,93209,2409975,38.01486,-122.58929,"0101000020CE130000823F1A37876941C1A7F4E5EF484D3E41",54,51
219,"0101000020E6100000D40E7F4DD68E5EC02A8C2D0439EC4240",219,"6111 Contra Costa Rd","Oakland","Alameda","CA",94618,2659933,9176,57089,2726198,37.84549,-122.23183,"0101000020CE130000537B465C3F3941C1BBC2B702A0E43D41",0,0
220,"0101000020E6100000BDE3141DC98F5EC07C7E18213CEE4240",220,"2733 Claremont Blvd","Berkeley","Alameda","CA",94705,3813851,34516,9366,3857733,37.86121,-122.24665,"0101000020CE130000BECE8C8EBC3A41C1C4A79E489FEC3D41",0,0
221,"0101000020E6100000C8EF6DFAB38F5EC03C66A032FEED4240",221,"2841 Claremont Blvd","Berkeley","Alameda","CA",94705,2772210,47953,46902,2867065,37.85932,-122.24536,"0101000020CE13000051F3D15BA33A41C15E0862D3B4EB3D41",0,0
222,"0101000020E61000005CACA8C1347C5EC0DE3CD52137F74240",222,"898 Coachman Pl","Clayton","Contra Costa","CA",94517,2849390,43543,85835,2978768,37.93137,-121.94072,"0101000020CE1300003195AACD790441C19A18B121F7ED3D41",0,0
223,"0101000020E6100000E36BCF2C09805EC0410E4A9869E74240",223,"432 Cliffside Dr","Danville","Contra Costa","CA",94526,2094973,36618,8399,2139990,37.80791,-122.00056,"0101000020CE1300001DD1D66E931541C1946209786ABF3D41",300,300
224,"0101000020E61000003ACC971760855EC0132C0E677EF54240",224,"1370 Cornwall Ct","Walnut Creek","Contra Costa","CA",94597,3653545,0,42715,3696260,37.91792,-122.08399,"0101000020CE130000118DD09FBA1C41C14C55F7CB77F53D41",0,0
225,"0101000020E61000008AE59656439A5EC0406A1327F7B34440",225,"2123 College Ave","Weed","Siskiyou","CA",96094,3708062,10074,69497,3787633,41.40598,-122.41036,"0101000020CE130000C8799FEDB88040C114467AD5E5E74141",261,258
226,"0101000020E61000002F34D769A4495EC00F62670A9D1F4440",226,"929 Clifford Dr","Lake Almanor","Lassen","CA",96137,2285552,38326,53145,2377023,40.24698,-121.15066,"0101000020CE1300000AB6DF20BFFC3FC18542B53086BC4041",0,0
227,"0101000020E6100000B554DE8E70525EC09E4143FF04634340",227,"109 Chip Shot Way","Roseville","Placer","CA",95678,2657315,47583,33155,2738053,38.77359,-121.28812,"0101000020CE1300007A3DCDE9066940C1B6A17B1CA4163F41",12,12
228,"0101000020E610000085251E5036555EC0A9F6E978CC4C4340",228,"1900 Claremont Rd","Carmichael","Sacramento","CA",95608,568632,13167,10436,592235,38.59999,-121.33144,"0101000020CE130000774EC528107A40C1F5D9827026D13E41",39,39
229,"0101000020E610000047382D78D1075EC005C58F3177A54340",229,"750 Conifer","Truckee","Nevada","CA",96161,3991100,31976,24093,4047169,39.2927,-120.12216,"0101000020CE1300005277871F271E3FC16FF6444CDF8D3F41",129,129
231,"0101000020E61000007DB3CD8DE9975DC09E29745E63234140",231,"11398 Clybourn Ave","Sylmar","Los Angeles","CA",91342,1136078,17370,5629,1159077,34.27647,-118.37363,"0101000020CE1300008DDBA0B0C8E73EC1AAA9B08460AA3641",315,306
232,"0101000020E61000001D774A07EB975DC0ACADD85F76234140",232,"11425 Clybourn Ave","Sylmar","Los Angeles","CA",91342,1208675,49583,79962,1338220,34.27705,-118.37372,"0101000020CE1300006B2DA88FC1E73EC1A817597DA1AA3641",438,420
233,"0101000020E6100000AAD4EC81569A5DC09D6340F67A334140",233,"27152 Circle G Dr","Canyon Country","Los Angeles","CA",91387,1130354,42189,77491,1250034,34.40219,-118.41153,"0101000020CE130000D3A908B11BE83EC1BD4C49F8EBE23641",570,543
234,"0101000020E610000015C616821C365DC099F04BFDBC1D4140",234,"43787 Colusa Dr","Big Bear City","San Bernardino","CA",92314,1121513,0,20265,1141778,34.23233,-116.84549,"0101000020CE130000505F64F19DD83CC15626D35B9C1C3641",183,183
283,"0101000020E61000000DC347C494685DC0C009850838104140",283,"1746 Crebs Way","Upland","San Bernardino","CA",91784,3219997,6557,15263,3241817,34.12671,-117.63408,"0101000020CE1300007E226794A2F53DC180D81E56192E3641",0,0
235,"0101000020E6100000F4F8BD4D7F3C5DC001309E41431F4140",235,"473 Chipmunk Ln","Big Bear Lake","San Bernardino","CA",92315,2690525,4196,59812,2754533,34.24424,-116.94527,"0101000020CE1300009E83363341FA3CC1AD9F982575293641",9,9
236,"0101000020E61000006F8104C58F395DC09604A8A9651F4140",236,"414 Conklin Rd","Big Bear Lake","San Bernardino","CA",92315,902857,0,78001,980858,34.24529,-116.8994,"0101000020CE1300000B59C8F92BEA3CC1DA65870E54263641",9,9
237,"0101000020E61000002E1C08C9026C5DC0CE3637A627BC4040",237,"14 Cobalt","Dana Point","Orange","CA",92629,1915025,23232,98575,2036832,33.46996,-117.68767,"0101000020CE130000966D5E3D26493EC1F7819DAF3A1B3541",0,0
238,"0101000020E6100000809A5AB6D66D5DC01FA2D11DC4BE4040",238,"18 Costa Del Sol","Dana Point","Orange","CA",92629,2682085,20595,10878,2713558,33.49036,-117.71623,"0101000020CE1300001A684C442A513EC1BB300A9E3A263541",0,0
239,"0101000020E6100000FDD98F1491955DC03D44A33B88E14040",239,"10 Chesterfield Rd","Rolling Hills","Los Angeles","CA",90274,2775947,25042,28814,2829803,33.76197,-118.33698,"0101000020CE130000C108A0605F0F3FC17126B13CE4CC3541",45,45
240,"0101000020E61000007D3F355EBA995DC01092054CE0E24040",240,"7031 Clovercliff Dr","Rancho Palos Verdes","Los Angeles","CA",90275,3958779,18575,67552,4044906,33.77247,-118.402,"0101000020CE13000056979B9F04253FC1AA26CA93CBD63541",0,0
241,"0101000020E61000009F02603C83945DC07008556AF6E04040",241,"2421 Colt Rd","Rancho Palos Verdes","Los Angeles","CA",90275,1490126,0,83517,1573643,33.75752,-118.32051,"0101000020CE130000240AE1E3110A3FC11F9CB211A0C93541",0,0
242,"0101000020E6100000CCD1E3F736975DC037FDD98F14E14040",242,"40 Coveview","Rancho Palos Verdes","Los Angeles","CA",90275,1326291,23414,39674,1389379,33.75844,-118.36273,"0101000020CE13000024D61475BA183FC1363354958CCD3541",15,15
243,"0101000020E61000004C89247A19815DC0B2683A3B19D84040",243,"18902 Clearview Ln","Huntington Beach","Orange","CA",92648,2882708,26840,10613,2920161,33.68827,-118.01718,"0101000020CE1300002DA252FCF9A63EC15F43C9D204933541",0,0
244,"0101000020E610000035B56CAD2F845DC0DC4603780BDC4040",244,"3618 Courtside Cir","Huntington Beach","Orange","CA",92649,2962672,18592,63492,3044756,33.7191,-118.06541,"0101000020CE130000534A8EA5C2B43EC196522F2919A43541",0,0
245,"0101000020E6100000C2FA3F87F9B25DC0452A8C2D04014140",245,"28850 Cliffside Dr","Malibu","Los Angeles","CA",90265,3025036,4400,10815,3040251,34.00794,-118.79648,"0101000020CE130000969D3F4651963FC14D13CBDB035C3641",0,0
246,"0101000020E6100000091B9E5E29B35DC08CB96B09F9004140",246,"28955 Cliffside Dr","Malibu","Los Angeles","CA",90265,568115,24359,56777,649251,34.0076,-118.7994,"0101000020CE130000AC43015B5E973FC181C1078F1E5C3641",0,0
247,"0101000020E610000039EE940ED64B5DC0BAA0BE654E874040",247,"6862 Calle Portone","Rancho Santa Fe","San Diego","CA",92091,1742891,6690,73541,1823122,33.05708,-117.18494,"0101000020CE13000033CB5B6F42C03DC1C14C44EA12433441",99,99
248,"0101000020E6100000314278B4714E5DC03D49BA66F2754040",248,"4134 Calle Isabelino","San Diego","San Diego","CA",92130,1687071,23765,62065,1772901,32.92146,-117.22569,"0101000020CE13000064795EC8C2DB3DC14ACCC17BB00C3441",0,0
249,"0101000020E6100000EC34D25279435DC0D1967329AE7A4040",249,"13379 Carriage Rd","Poway","San Diego","CA",92064,1483567,0,56212,1539779,32.95844,-117.05428,"0101000020CE130000E4A08220829B3DC1646B95D8AE0E3441",0,0
250,"0101000020E6100000799274CDE4155DC0F7CC920035DD4040",250,"75576 Camino De Paco","Indian Wells","Riverside","CA",92210,2000395,13899,66289,2080583,33.72818,-116.34209,"0101000020CE13000003163752CD573CC1167C5DE6E51E3541",0,0
251,"0101000020E6100000378E588B4F8F5EC0DDEA39E97DE34340",251,"6118 Cr 8","Orland","Glenn","CA",95963,885505,19654,76487,981646,39.77728,-122.23923,"0101000020CE1300007DFD57902DC740C12082F3B084894041",201,201
252,"0101000020E6100000032670EB6E925EC0A987687407294340",252,"785 Concord Ct","Napa","Napa","CA",94558,3908525,6133,25504,3940162,38.32054,-122.28802,"0101000020CE130000839E5A8A0C2641C1B0D1665BEDB13E41",0,0
253,"0101000020E610000068791EDC9DAF5DC008944DB9C2074140",253,"1948 Corral Canyon Rd","Malibu","Los Angeles","CA",90265,2914235,32314,67849,3014398,34.06063,-118.74401,"0101000020CE130000830B0B169C7E3FC194C2E126E76D3641",471,462
254,"0101000020E6100000672C9ACE4EAC5DC09FCDAACFD50A4140",254,"885 Crater Oak Dr","Calabasas","Los Angeles","CA",91302,677518,29291,43285,750094,34.08465,-118.69231,"0101000020CE1300007F8514ED266A3FC11ED9DD08B6733641",372,366
255,"0101000020E61000000B630B410EBC5DC0E65C8AABCA164140",255,"31 Cindy Ave","Newbury Park","Ventura","CA",91320,3910239,0,11968,3922207,34.17806,-118.93837,"0101000020CE1300006B1A7771EAB53FC1B49DF95F3FB03641",81,81
256,"0101000020E610000000AE64C746B45DC01BD82AC1E21C4140",256,"3372 Country Home Ct","Thousand Oaks","Ventura","CA",91362,3848832,29784,64453,3943069,34.22567,-118.81682,"0101000020CE130000196BDB99C9863FC188A02AB515BA3641",210,201
257,"0101000020E61000001344DD0720AF5DC078B988EFC4144140",257,"6357 Chesebro Rd","Agoura Hills","Los Angeles","CA",91301,3227878,44613,48700,3321191,34.16226,-118.73633,"0101000020CE130000EA1F81976C713FC1BB2D5A655C983641",354,342
258,"0101000020E6100000E2E47E87A2825DC0159161156F484140",258,"37624 Clark Ct","Palmdale","Los Angeles","CA",93552,2302510,49791,67133,2419434,34.56589,-118.04117,"0101000020CE1300005D71BC544B573EC19CED89A7ED093741",0,0
259,"0101000020E61000009C508880438E5DC00612143FC61C4140",259,"2128 Countryman Ln","La Canada Flintridge","Los Angeles","CA",91011,2803789,47075,76457,2927321,34.2248,-118.22287,"0101000020CE130000E3168EDFADB83EC17E8D1AEAEA873641",0,0
260,"0101000020E6100000075F984C15885DC0F2B0506B9A0F4140",260,"1459 Circle Drive","San Marino","Los Angeles","CA",91108,821331,0,10621,831952,34.1219,-118.1263,"0101000020CE130000AA3ED4BD7DA13EC15131B55039543641",0,0
261,"0101000020E61000006B2BF697DD815DC03255302AA9F74040",261,"14247 Close St","Whittier","Los Angeles","CA",90604,3119436,48192,35979,3203607,33.93485,-118.02915,"0101000020CE13000050C66D2B71923EC1CA7A0DA1BFFC3541",0,0
262,"0101000020E6100000567DAEB662815DC0C442AD69DEF94040",262,"14336 Chestnut St","Whittier","Los Angeles","CA",90605,3958048,39707,41208,4038963,33.9521,-118.02165,"0101000020CE130000FA3BDD95188E3EC166942CB375033641",0,0
263,"0101000020E6100000A2629CBF097F5DC07958A835CDFB4040",263,"8133 Coventry Cir","Whittier","Los Angeles","CA",90605,502028,16357,0,518385,33.9672,-117.98497,"0101000020CE13000072EA4A16CA7F3EC1072C89F3DB063641",0,0
264,"0101000020E61000004B3CA06CCA7F5DC05EA27A6B60F34040",264,"14417 Costa Mesa Dr","La Mirada","Los Angeles","CA",90638,1168938,46793,5944,1221675,33.90138,-117.99673,"0101000020CE13000037AB776E7B8A3EC1DC77CE34DCEB3541",0,0
265,"0101000020E61000002D095053CB785DC0828B153598FE4040",265,"19056 Companario Dr","Rowland Heights","Los Angeles","CA",91748,3464706,31929,16302,3512937,33.98902,-117.88741,"0101000020CE1300007CDD935D955B3EC160F8589722083641",0,0
266,"0101000020E6100000B3B5BE4868735DC09604A8A965FF4040",266,"23595 Coyote Springs Dr","Diamond Bar","Los Angeles","CA",91765,1598181,47211,49047,1694439,33.99529,-117.80324,"0101000020CE13000089710E179A3D3EC1ACF5F42BEE033641",0,0
267,"0101000020E6100000D9B11188D7715DC077D66EBBD0044140",267,"70 Cottontail Dr","Pomona","Los Angeles","CA",91766,2537914,13407,33875,2585196,34.03762,-117.77878,"0101000020CE130000988DA421DF303EC169FA787EEF133641",0,0
268,"0101000020E61000006B9A779CA2715DC0E4310395F1034140",268,"58 Countrywood Dr","Pomona","Los Angeles","CA",91766,2755528,0,23199,2778727,34.03081,-117.77555,"0101000020CE130000012072B76B303EC122317D09C7103641",0,0
269,"0101000020E6100000A60F5D50DF725DC0CD920035B5084140",269,"2266 Concord Ave","Pomona","Los Angeles","CA",91768,3741252,32873,56401,3830526,34.06803,-117.79488,"0101000020CE1300000CDCA86B77333EC194F8B89E2C223641",0,0
270,"0101000020E6100000D5B2B5BE48745DC06C26DF6C730F4140",270,"552 Conestoga Rd","San Dimas","Los Angeles","CA",91773,2173982,27165,0,2201147,34.12071,-117.81694,"0101000020CE13000082ED598CEB353EC130EA7FEE5D3A3641",0,0
271,"0101000020E610000044C02154A96F5DC0F7E461A1D6CC4040",271,"87 Cinnamon Teal","Aliso Viejo","Orange","CA",92656,722419,10732,16227,749378,33.6003,-117.74471,"0101000020CE130000804BA12949503EC101E428AB45573541",0,0
272,"0101000020E61000000282397AFC6C5DC0658D7A8846C74040",272,"24582 Steffy Dr","Laguna Niguel","Orange","CA",92677,530556,35246,19457,585259,33.55684,-117.70291,"0101000020CE13000038B04CE8EB453EC1B474256A64413541",0,0
273,"0101000020E6100000F4F8BD4D7F6C5DC058C51B9947C64040",273,"24912 Via Kristina","Laguna Niguel","Orange","CA",92677,882745,47758,30401,960904,33.54906,-117.69527,"0101000020CE13000060FD665402443EC17508E586763D3541",0,0
274,"0101000020E61000006D567DAEB66E5DC0950ED6FF39C44040",274,"24 San Simeon","Laguna Niguel","Orange","CA",92677,417803,43882,31623,493308,33.53302,-117.7299,"0101000020CE130000594C9121BF513EC12D1F1EFF78393541",0,0
275,"0101000020E6100000DDEA39E97D6D5DC05C035B2558C44040",275,"24012 Crossbill Cir","Laguna Niguel","Orange","CA",92677,783258,22530,86238,892026,33.53394,-117.71081,"0101000020CE130000ACE5BDBCF44A3EC1DB70C11B4E383541",0,0
276,"0101000020E610000000AE64C7466C5DC0DC9DB5DB2EC44040",276,"25091 Via Bajo Cerro","Laguna Niguel","Orange","CA",92677,445302,34756,73759,553817,33.53268,-117.69182,"0101000020CE13000004C90A626A443EC186FAB17E38363541",0,0
277,"0101000020E6100000FEB7921D1B6D5DC06A300DC347C84040",277,"27464 Century Cir","Laguna Niguel","Orange","CA",92677,514074,30405,77537,622016,33.56469,-117.70478,"0101000020CE13000025D63A5BCD453EC152FA5A7AE1443541",0,0
278,"0101000020E6100000F415A4198B6C5DC0BD00FBE8D4C54040",278,"28752 Calle Vis","Laguna Niguel","Orange","CA",92677,850520,19090,48506,918116,33.54556,-117.69599,"0101000020CE1300004C6B307B9B443EC1BB3384C7083C3541",0,0
279,"0101000020E6100000C976BE9F1A775DC0D53E1D8F19F04040",279,"408 Coleman Pl","Placentia","Orange","CA",92870,3307867,0,16795,3324662,33.87578,-117.861,"0101000020CE130000F13D099FA45D3EC163E15DF5D8D53541",0,0
280,"0101000020E6100000A9BC1DE1B4725DC04703780B24F04040",280,"5900 Country View Dr","Yorba Linda","Orange","CA",92886,866344,31602,96784,994730,33.8761,-117.79229,"0101000020CE130000943E7FE09B453EC1256AF52B5FD03541",12,12
383,"0101000020E61000004B766C04E20F5EC099BB96900FAA4340",383,"13544 Donner Pass Rd","Truckee","Nevada","CA",96161,1578483,0,50421,1628904,39.3286,-120.24817,"0101000020CE130000C7A01E2CE5423FC1A87AC282ABA73F41",0,0
281,"0101000020E6100000124E0B5EF4675DC0EE5F596952124140",281,"6138 Citrine St","Rancho Cucamonga","San Bernardino","CA",91701,3890040,0,55448,3945488,34.14314,-117.62429,"0101000020CE130000415BFC2D9BF03DC100B743464C343641",0,0
282,"0101000020E6100000F775E09C11635DC072BF4351A00F4140",282,"7277 Comiso Way","Rancho Cucamonga","San Bernardino","CA",91701,1861692,30700,60062,1952454,34.12208,-117.54795,"0101000020CE1300009CC6FDC814D83DC164055F0F31253641",0,0
284,"0101000020E610000055A4C2D8425A5DC0B554DE8E700E4140",284,"7779 Creighton Ct","Fontana","San Bernardino","CA",92336,3197176,5509,33134,3235819,34.11281,-117.41033,"0101000020CE130000339B148B05A93DC14250E4A637163641",0,0
285,"0101000020E6100000F584251E50685DC0B1A71DFE9A0C4140",285,"1438 Cottonwood St","Upland","San Bernardino","CA",91786,2491206,47748,13573,2552527,34.09848,-117.62989,"0101000020CE130000CC9960E4F4F63DC1438657C6C0213641",0,0
286,"0101000020E6100000105839B4C85C5DC0726DA818E7F74040",286,"9119 Colorado Ave","Riverside","Riverside","CA",92503,528850,32564,88908,650322,33.93674,-117.44975,"0101000020CE1300001D48FD57F7C73DC1C5F3BCE973CE3541",0,0
287,"0101000020E6100000A2D11DC4CE565DC039D6C56D34EC4040",287,"18905 Chickory Dr","Riverside","Riverside","CA",92504,2218864,0,75642,2294506,33.84535,-117.35637,"0101000020CE1300004EE565193AB03DC1F001ACDC16A03541",930,879
288,"0101000020E610000051A5660FB4585DC0AD510FD1E8FA4040",288,"6055 Colonial Dr","Riverside","Riverside","CA",92506,3199819,22817,73280,3295916,33.96023,-117.38599,"0101000020CE13000090EE4F6A66AF3DC152CE743357D33541",0,0
289,"0101000020E61000008EE9094B3C745DC0B43C0FEECE4E4140",289,"17552 Coolwater Ave","Palmdale","Los Angeles","CA",93591,1826393,21471,86712,1934576,34.61569,-117.81618,"0101000020CE130000C377B66176043EC1E039980BD10C3741",0,0
290,"0101000020E6100000423EE8D9AC465DC09CF9D51C20704140",290,"25524 Cheryle St","Barstow","San Bernardino","CA",92311,3555729,16804,40103,3612636,34.87598,-117.1043,"0101000020CE130000F61A14AADEF43CC1088EB72E1D433741",0,0
291,"0101000020E6100000CCB4FD2B2B435DC06A87BF266B704140",291,"28088 Cochise Ave","Barstow","San Bernardino","CA",92311,887733,0,83766,971499,34.87827,-117.04951,"0101000020CE1300008D5A3B9EB8E13CC1E11C156BD23F3741",0,0
292,"0101000020E61000009E245D33F9525DC097FF907EFB064140",292,"1858 Cottonwood Dr","Colton","San Bernardino","CA",92324,1319395,42052,82691,1444138,34.05455,-117.29646,"0101000020CE1300000BEEA59EF8863DC1A280B9BD57F43541",0,0
293,"0101000020E6100000E9D495CFF24C5DC08B89CDC7B5114140",293,"2499 Cienega Dr","Highland","San Bernardino","CA",92346,512736,0,74626,587362,34.13836,-117.20232,"0101000020CE1300005E2833AF045E3DC1224C6C6A8E103641",0,0
294,"0101000020E61000003C889D29744A5DC01D2098A3C70F4140",294,"29352 Clear View Ln","Highland","San Bernardino","CA",92346,3308224,44764,48727,3401715,34.12328,-117.16334,"0101000020CE13000008E81C58E1513DC180CB80BD0D073641",0,0
295,"0101000020E610000006D847A7AE485DC0D89E5912A0024140",295,"30660 Country Club Dr","Redlands","San Bernardino","CA",92373,1925346,0,24680,1950026,34.02051,-117.13566,"0101000020CE130000A1B3D05F1F523DC159BB3AE81AD93541",894,855
296,"0101000020E6100000EDF5EE8FF7545DC08A93FB1D8A0E4140",296,"1847 Cleveland St","San Bernardino","San Bernardino","CA",92411,1163930,0,30406,1194336,34.11359,-117.32761,"0101000020CE130000CE3947DE1A8C3DC1690B61E7F30F3641",0,0
297,"0101000020E6100000DAFE959526555DC078D1579066104140",297,"1559 Clyde St","San Bernardino","San Bernardino","CA",92411,702167,0,70666,772833,34.12813,-117.33048,"0101000020CE130000A9D5D753B18B3DC17DA8C6D45E163641",0,0
298,"0101000020E61000006C787AA52C4D5DC01C42959A3D204140",298,"27430 Cottonwood Ln","Blue Jay","San Bernardino","CA",92317,2815644,43038,72098,2930780,34.25188,-117.20585,"0101000020CE130000719B639547543DC1B63BC3292D413641",984,960
299,"0101000020E61000006AC18BBE82465DC07B6649809A1A4140",299,"32183 Cove Cir","Running Springs","San Bernardino","CA",92382,2167950,0,76525,2244475,34.20784,-117.10173,"0101000020CE13000086A7204642343DC1C7F1FEF935263641",528,507
300,"0101000020E61000003BFC3559A37A5DC0B2463D44A3D34040",300,"2162 College Ave","Costa Mesa","Orange","CA",92627,2834042,0,7737,2841779,33.65342,-117.91622,"0101000020CE1300000FFC48A31C873EC1A9F93B7FE57B3541",0,0
301,"0101000020E61000008065A549297C5DC041BCAE5FB0D34040",301,"988 Congress St","Costa Mesa","Orange","CA",92627,3544181,49807,96082,3690070,33.65382,-117.94002,"0101000020CE130000450D9A54688F3EC13CA1824E067E3541",0,0
302,"0101000020E610000065E42CEC69775DC043739D465AD24040",302,"2952 Corte Portofino","Newport Beach","Orange","CA",92660,1983149,46636,41039,2070824,33.64338,-117.86584,"0101000020CE130000BE61ADE976763EC11F66F5197E733541",0,0
303,"0101000020E6100000BAF770C971775DC0B4E55C8AABD24040",303,"3081 Corte Portofino","Newport Beach","Orange","CA",92660,1774805,0,70089,1844894,33.64586,-117.86632,"0101000020CE13000024B8CBC762763EC13CCC35EA95743541",0,0
304,"0101000020E61000004963B48EAA705DC02B4D4A41B7DB4040",304,"2 Christamon W","Irvine","Orange","CA",92620,859937,26030,23053,909020,33.71653,-117.76041,"0101000020CE130000EB9E014F474A3EC1B3607BECF2893541",0,0
305,"0101000020E610000093E34EE960715DC00C1F115322C54040",305,"772 Coast View Dr","Laguna Beach","Orange","CA",92651,1082864,31546,74044,1188454,33.54011,-117.77154,"0101000020CE1300003FD39A20A85F3EC1E1D4E1A2E33F3541",0,0
306,"0101000020E61000003EEDF0D764715DC0A29C685721C54040",306,"825 Coast View Dr","Laguna Beach","Orange","CA",92651,2152951,33613,94081,2280645,33.54008,-117.77178,"0101000020CE13000009ED3A72BE5F3EC1D55A7266E53F3541",0,0
307,"0101000020E6100000DB8AFD65F76A5DC0906B43C538CF4040",307,"23674 Coronel Dr","Mission Viejo","Orange","CA",92691,833508,0,27071,860579,33.61892,-117.67135,"0101000020CE13000045047776B9343EC1045CFEAA34593541",0,0
308,"0101000020E6100000367689EAAD6B5DC008C9022670BF4040",308,"32200 Cook Lane","San Juan Capistrano","Orange","CA",92675,652023,4036,25270,681329,33.49561,-117.68249,"0101000020CE130000C04CB981CC443EC109307BE4B4253541",9,9
309,"0101000020E61000006EA301BC055E5DC03F575BB1BFE04040",309,"25023 Cliffrose St","Corona","Riverside","CA",92883,1551246,26232,41591,1619069,33.75585,-117.4691,"0101000020CE130000844FF25869E03DC1373492230F833541",63,63
310,"0101000020E6100000944DB9C2BB585DC0832F4CA60A9A4040",310,"1019 Costa Pacifica Way","Oceanside","San Diego","CA",92054,1243039,28288,27357,1298684,33.20345,-117.38646,"0101000020CE130000AA893DE03EF93DC1ADD8333083913441",0,0
311,"0101000020E61000001F4B1FBAA0585DC0E7A90EB9199A4040",311,"1024 Costa Pacifica Way","Oceanside","San Diego","CA",92054,3602223,16167,32494,3650884,33.20391,-117.38481,"0101000020CE1300003A267A6E9EF83DC16A524C2493913441",0,0
312,"0101000020E61000005D6DC5FEB2495DC0BFF1B56796A04040",312,"8511 Circle R Valley Ln","Escondido","San Diego","CA",92026,3933662,41282,31465,4006409,33.25459,-117.15155,"0101000020CE1300008E037B9671A13DC1931F463D66943441",747,702
313,"0101000020E61000004D327216F6505DC0C5724BAB21994040",313,"241 Colusa Way","Vista","San Diego","CA",92083,1364994,0,40697,1405691,33.19634,-117.26502,"0101000020CE1300001B177A0D18CF3DC153E44512B6843441",0,0
314,"0101000020E6100000D95A5F24B44F5DC0DEAB5626FCD64040",314,"23730 Continental Dr","Canyon Lake","Riverside","CA",92587,1257003,28221,93598,1378822,33.67957,-117.24537,"0101000020CE130000231DB3396D993DC11D46347AAF503541",45,42
315,"0101000020E61000001C9947FE60465DC0833463D174C24040",315,"32295 Cour Pomerol","Temecula","Riverside","CA",92591,3693312,45904,28981,3768197,33.51919,-117.09967,"0101000020CE1300004E3FD7E5BA753DC19ED9A1E9D8003541",0,0
316,"0101000020E6100000FFCF61BEBC3E5DC0FE7DC68503CD4040",316,"39018 Colt Rd","Temecula","Riverside","CA",92592,1357256,48414,30726,1436396,33.60167,-116.98027,"0101000020CE13000002D57BB4DE433DC14C2EF3CC821A3541",1773,1629
317,"0101000020E6100000E76F422102465DC04BCD1E6805C24040",317,"32292 Corte Santa Catalina","Temecula","Riverside","CA",92592,3209597,0,93966,3303563,33.51579,-117.09388,"0101000020CE1300005ED7356C05743DC16061BCE1F0FE3441",0,0
318,"0101000020E6100000179F02603C4D5DC098C0ADBB796A4040",318,"4750 Coconino Way","San Diego","San Diego","CA",92117,3162428,25876,16771,3205075,32.83184,-117.20681,"0101000020CE1300001BC8B13EB8DD3DC1DC1EFEF813E53341",0,0
319,"0101000020E6100000058BC3995F415DC008AC1C5A64674040",319,"6835 Cowles Mountain Blvd","San Diego","San Diego","CA",92119,2532682,0,61008,2593690,32.80775,-117.02146,"0101000020CE1300009949DA104C9E3DC110926BA7FCCB3341",0,0
320,"0101000020E610000006F52D73BA545DC0DF89592F86924040",320,"4530 Cove Drive","Carlsbad","San Diego","CA",92008,3869575,13740,66183,3949498,33.14472,-117.32388,"0101000020CE13000098AD5798DEE83DC1A0FA17C27F733441",0,0
321,"0101000020E6100000E0A128D0274E5DC0C3F01131258A4040",321,"7556 Circulo Sequoia","Carlsbad","San Diego","CA",92009,2959539,39968,73540,3073047,33.07926,-117.22118,"0101000020CE130000DB670BFFEDCA3DC1C04A1930694F3441",0,0
322,"0101000020E6100000EB8B84B69C4B5DC0E561A1D6347F4040",322,"16967 Circa Del Sur","Del Mar","San Diego","CA",92014,3602826,31686,33250,3667762,32.9938,-117.18144,"0101000020CE130000BC3C6BC61EC53DC14C3EC05BE3273441",0,0
323,"0101000020E61000004F3BFC35594B5DC0E4BD6A65C27F4040",323,"17294 Circa Del Sur","Del Mar","San Diego","CA",92014,1184019,24723,71975,1280717,32.99812,-117.17732,"0101000020CE13000088540B0A3FC33DC1E31B17FB64293441",0,0
324,"0101000020E6100000C976BE9F1A515DC0E59B6D6E4C7B4040",324,"1774 Coast Blvd","Del Mar","San Diego","CA",92014,2492028,14755,71195,2577978,32.96327,-117.26725,"0101000020CE130000ABC6CCAC6EE63DC10AD97362CE213441",0,0
325,"0101000020E61000006ADE718A8E525DC08D62B9A5D5844040",325,"1127 Cornish Dr","Encinitas","San Diego","CA",92024,1933921,0,27403,1961324,33.03777,-117.28995,"0101000020CE130000065F920940E73DC1C18D9E484D433441",0,0
326,"0101000020E6100000E44EE960FD515DC024287E8CB96B4040",326,"361 Coast Blvd","La Jolla","San Diego","CA",92037,756249,12070,19319,787638,32.8416,-117.28109,"0101000020CE130000BE1660651BF73DC1E6A7074036EF3341",0,0
327,"0101000020E61000004F5DF92CCF4F5DC0F7E461A1D66C4040",327,"2628 Costebelle Drive","La Jolla","San Diego","CA",92037,1857854,3463,66212,1927529,32.8503,-117.24702,"0101000020CE130000CD0F72D230EA3DC1F464CC5029F03341",0,0
328,"0101000020E61000001990BDDEFD4B5DC09335EA211A6D4040",328,"4990 Corlita Ct","San Diego","San Diego","CA",92122,1079062,36768,54430,1170260,32.85236,-117.18737,"0101000020CE130000A174D1A0D9D43DC1463A0E9E3CEC3341",0,0
329,"0101000020E6100000E71DA7E848445DC024D6E25300804040",329,"12287 Corte Sabio","San Diego","San Diego","CA",92128,2264172,32732,92737,2389641,33.00001,-117.06695,"0101000020CE1300002490D699029C3DC1EC480A3E5F213441",0,0
330,"0101000020E6100000B9C7D2872E485DC03ED00A0C597D4040",330,"14452 Corte Lampara","San Diego","San Diego","CA",92129,520355,0,20066,540421,32.97928,-117.12784,"0101000020CE130000505D8BBA8CB33DC105C446C96B1D3441",0,0
331,"0101000020E61000005227A089B0455DC0F92CCF83BB7F4040",331,"15583 Corte Montanoso","San Diego","San Diego","CA",92129,1212351,28253,88939,1329543,32.99791,-117.0889,"0101000020CE130000B7545DB9FAA33DC16CA54A0D3B223441",0,0
332,"0101000020E610000090DAC4C9FD425DC00A850838848E4040",332,"1419 Citrus Rdg","Escondido","San Diego","CA",92027,3183014,32811,70547,3286372,33.11341,-117.04674,"0101000020CE1300007BF0DE66FF893DC1B05FB367FE4F3441",381,360
333,"0101000020E6100000B2683A3B193A5DC05C1B2AC6F96B4040",333,"9140 Clearlake Way","Lakeside","San Diego","CA",92040,3161777,0,87771,3249548,32.84356,-116.90779,"0101000020CE13000001B4D17F8E723DC1D461B6302CD23341",0,0
334,"0101000020E610000097900F7A36415DC09B20EA3E00854040",334,"14391 Ciera Ct","Poway","San Diego","CA",92064,1954842,47798,13937,2016577,33.03907,-117.01895,"0101000020CE130000F43C346549873DC1B4CE1B58292E3441",492,480
335,"0101000020E610000061A6ED5F59415DC0F6D1A92B9F814040",335,"16262 Country Day Rd","Poway","San Diego","CA",92064,1436697,25858,70157,1532712,33.01267,-117.02108,"0101000020CE130000D63C62BA908A3DC17744E3181A233441",0,0
337,"0101000020E6100000A6B8AAECBB445DC0B77F65A549494040",337,"2749 Creekside Village Sq","San Diego","San Diego","CA",92154,2458295,48923,7994,2515212,32.57256,-117.07397,"0101000020CE130000C973F03477C73DC171BE66F1356C3341",0,0
338,"0101000020E6100000C442AD69DE575DC059C0046EDDE14140",338,"13370 Clover St","Trona","San Bernardino","CA",93562,2782266,45377,89397,2917040,35.76457,-117.37295,"0101000020CE13000037005A5603FB3CC19A6A53FEE4D23841",0,0
339,"0101000020E610000073BA2C2636135DC044FAEDEBC0594040",339,"39510 Clements St","Boulevard","San Diego","CA",91905,2052182,33902,10191,2096275,32.7012,-116.30018,"0101000020CE130000430F9D5005A83CC1D8BE58A608663341",945,921
340,"0101000020E610000011E4A084998C5DC0DF37BEF6CCEA4040",340,"4247 Country Club Dr","Long Beach","Los Angeles","CA",90807,1715671,6965,80955,1803591,33.83438,-118.19687,"0101000020CE130000115EA58A18D73EC1186EC305F3DF3541",0,0
341,"0101000020E6100000AA0EB9196E5C5DC02A5778978BF84040",341,"8771 Conway Dr","Riverside","Riverside","CA",92503,2381422,23379,31270,2436071,33.94176,-117.44422,"0101000020CE130000F31B3A388BC53DC1B877E11D25D03541",0,0
342,"0101000020E6100000302FC03E3A295DC037A6272CF1504040",342,"23448 Coyote Holr Rd","Potrero","San Diego","CA",91963,1361647,38415,42908,1442970,32.63236,-116.64418,"0101000020CE130000189D86B1DA283DC198A3482E85633341",990,945
343,"0101000020E610000025AFCE31202B5DC00C76C3B645B14040",343,"30383 Chihuahua Valley Rd","Warner Springs","San Diego","CA",92086,2638546,42758,20078,2701382,33.38494,-116.67384,"0101000020CE1300000A4E632699EC3CC12DF5A58834A63441",2331,2145
344,"0101000020E61000001BF5108DEE185DC0F19D98F562E04040",344,"40699 Clover Lane","Palm Desert","Riverside","CA",92260,1983169,8406,20265,2011840,33.75302,-116.38956,"0101000020CE130000840D7E6E2A663CC1CD82ED4D1E2D3541",0,0
345,"0101000020E61000007DAEB6627F1B5DC08C67D0D03FE14040",345,"42 Churchill Ln","Rancho Mirage","Riverside","CA",92270,1524356,21267,84628,1630251,33.75976,-116.42965,"0101000020CE1300001631E4BA9C733CC1E8E915E10F333541",0,0
346,"0101000020E61000005AD8D30E7F1B5DC093C6681D55E14040",346,"63 Churchill Ln","Rancho Mirage","Riverside","CA",92270,2670996,9595,81243,2761834,33.76041,-116.42963,"0101000020CE130000FC0A00718B733CC1060F786F56333541",30,30
348,"0101000020E61000004FE960FD9F1F5DC0331B649291FB4040",348,"66941 Crescent Dr","Desert Hot Springs","Riverside","CA",92240,824045,0,50281,874326,33.96538,-116.49414,"0101000020CE1300001471F4E10A773CC1F06EDDA2AE8F3541",0,0
349,"0101000020E61000000AD7A3703D145DC05C38109205104140",349,"61711 Crest Circle Dr","Joshua Tree","San Bernardino","CA",92252,1761457,42555,32801,1836813,34.12517,-116.31625,"0101000020CE130000F51F8C16F6293CC11B5862EE45C63541",60,60
350,"0101000020E61000005E9D6340F6245DC03BC269C18B064140",350,"11083 Coronado Dr","Morongo Valley","San Bernardino","CA",92256,2736597,0,99568,2836165,34.05114,-116.57753,"0101000020CE130000C7ABD6912F8C3CC1B3A5BB84A7BA3541",18,18
351,"0101000020E61000008FAA2688BAA75CC0A661F888986A4140",351,"1922 Cortez St","Needles","San Bernardino","CA",92363,1954211,44708,70930,2069849,34.83278,-114.62076,"0101000020CE1300009D3DD756289C39C146D5691F1B7A3641",0,0
352,"0101000020E6100000CF31207BBDA75CC0A661F888986A4140",352,"1930 Cortez","Needles","San Bernardino","CA",92363,2832135,0,71195,2903330,34.83278,-114.62094,"0101000020CE13000065F2F45A389C39C1B5D63B4D1E7A3641",0,0
353,"0101000020E6100000C251F2EA1C8F5EC0D9B11188D7ED4240",353,"258 Alvarado Rd","Berkeley","Alameda","CA",94705,620303,40182,28383,688868,37.85814,-122.23614,"0101000020CE1300000A1E68DA323941C133B156865AEA3D41",0,0
